,City,Lat,Lng,Max Temp,Humidity,Cloudiness,Wind Speed,Country,Date
0,palamos,41.85,3.13,93.0,54.0,0.0,6.8,ES,1596035372
1,karratha,-20.74,116.85,68.67,63.0,0.0,4.03,AU,1596035141
2,jamestown,42.1,-79.24,77.0,73.0,90.0,8.05,US,1596035373
3,bandarbeyla,9.49,50.81,81.01,70.0,88.0,28.9,SO,1596035373
4,jacobina,-11.18,-40.52,77.54,54.0,54.0,10.6,BR,1596035374
5,punta arenas,-53.15,-70.92,39.2,80.0,40.0,27.51,CL,1596035140
6,livingston,55.9,-3.52,63.0,55.0,75.0,13.87,GB,1596035374
7,fairbanks,64.84,-147.72,51.8,87.0,90.0,3.36,US,1596035245
8,albany,42.6,-73.97,82.0,56.0,0.0,3.71,US,1596035375
9,olinda,-8.01,-34.86,80.6,78.0,75.0,12.75,BR,1596035375
10,sorland,67.67,12.69,62.6,72.0,56.0,10.29,NO,1596035376
11,the valley,18.22,-63.06,80.6,94.0,75.0,29.97,AI,1596035376
12,rikitea,-23.12,-134.97,72.23,80.0,16.0,10.47,PF,1596035376
13,chokurdakh,70.63,147.92,44.29,74.0,98.0,7.23,RU,1596035377
14,yulara,-25.24,130.99,51.8,23.0,0.0,5.82,AU,1596035377
15,laguna,38.42,-121.42,66.2,77.0,1.0,6.93,US,1596035378
16,marieville,45.43,-73.17,80.01,66.0,0.0,7.0,CA,1596035378
17,busselton,-33.65,115.33,48.99,83.0,44.0,4.43,AU,1596035378
18,coos bay,43.37,-124.22,54.0,100.0,90.0,3.36,US,1596035091
19,cape town,-33.93,18.42,63.0,72.0,75.0,8.05,ZA,1596035379
20,cabo san lucas,22.89,-109.91,82.99,78.0,5.0,9.17,MX,1596035380
21,douglas,41.3,-96.17,82.99,78.0,1.0,5.82,US,1596035380
22,gorin,51.2,136.67,71.69,93.0,1.0,4.45,RU,1596035380
23,geraldton,-28.77,114.6,51.8,93.0,0.0,9.17,AU,1596035381
24,codrington,-38.27,141.97,49.23,81.0,29.0,7.61,AU,1596035381
25,barrow,71.29,-156.79,42.8,81.0,90.0,25.28,US,1596035381
26,vaini,-21.2,-175.2,68.0,72.0,20.0,8.05,TO,1596035382
27,kumba,4.64,9.45,79.79,76.0,89.0,4.65,CM,1596035382
28,kambove,-10.88,26.6,76.08,30.0,48.0,2.86,CD,1596035382
29,upernavik,72.79,-56.15,43.29,92.0,100.0,3.91,GL,1596035383
30,ewa beach,21.32,-158.01,75.2,94.0,75.0,4.7,US,1596035383
31,ushuaia,-54.8,-68.3,39.2,94.0,40.0,32.21,AR,1596035216
32,comodoro rivadavia,-45.87,-67.5,42.8,56.0,22.0,3.36,AR,1596035384
33,torata,-17.08,-70.84,66.49,19.0,0.0,5.57,PE,1596035384
34,jalu,29.03,21.55,100.99,14.0,0.0,7.0,LY,1596035384
35,mataura,-46.19,168.86,47.97,91.0,100.0,3.38,NZ,1596035385
36,qaanaaq,77.48,-69.36,42.4,74.0,62.0,2.62,GL,1596035385
37,biak,-0.91,122.88,76.19,81.0,89.0,7.94,ID,1596035386
38,castro,-24.79,-50.01,61.32,84.0,98.0,6.33,BR,1596035386
39,bengkulu,-3.8,102.27,77.41,89.0,50.0,8.08,ID,1596035386
40,palmas,-10.21,-48.36,91.72,24.0,0.0,7.05,BR,1596035387
41,nikolskoye,59.7,30.79,64.4,88.0,75.0,6.71,RU,1596035387
42,nyurba,63.28,118.33,50.61,86.0,1.0,3.69,RU,1596035387
43,marsh harbour,26.54,-77.06,83.25,71.0,99.0,9.78,BS,1596035388
44,ahipara,-35.17,173.17,54.5,84.0,100.0,8.19,NZ,1596035388
45,algeciras,36.13,-5.45,78.8,78.0,20.0,8.05,ES,1596035389
46,east london,-33.02,27.91,62.6,72.0,0.0,13.87,ZA,1596035389
47,georgetown,5.41,100.34,86.0,70.0,20.0,4.7,MY,1596035316
48,bluff,-46.6,168.33,50.22,91.0,100.0,14.23,NZ,1596035390
49,beidao,34.57,105.89,67.89,68.0,93.0,4.25,CN,1596035390
50,cartagena,10.4,-75.51,86.0,79.0,83.0,4.7,CO,1596035390
51,hermanus,-34.42,19.23,63.0,73.0,0.0,5.99,ZA,1596035391
52,tuktoyaktuk,69.45,-133.04,44.6,93.0,90.0,4.7,CA,1596035391
53,thompson,55.74,-97.86,60.8,82.0,20.0,3.69,CA,1596035282
54,hasaki,35.73,140.83,68.0,94.0,75.0,8.05,JP,1596035392
55,botwood,49.15,-55.35,64.0,71.0,23.0,1.01,CA,1596035392
56,chicama,-7.84,-79.15,69.06,57.0,22.0,5.73,PE,1596035393
57,bardiyah,31.76,25.09,84.63,51.0,0.0,13.33,LY,1596035393
58,cascais,38.7,-9.42,87.8,45.0,2.0,6.93,PT,1596035161
59,dingle,11.0,122.67,76.33,90.0,100.0,5.06,PH,1596035394
60,puerto ayora,-0.74,-90.35,66.0,95.0,98.0,1.99,EC,1596035263
61,ondjiva,-17.07,15.73,80.6,18.0,0.0,4.7,AO,1596035395
62,sao filipe,14.9,-24.5,78.39,82.0,74.0,4.45,CV,1596035395
63,kirakira,-10.45,161.92,78.89,79.0,100.0,6.17,SB,1596035395
64,akdepe,42.06,59.38,91.4,18.0,24.0,9.17,TM,1596035396
65,hilo,19.73,-155.09,71.6,83.0,90.0,5.82,US,1596035396
66,esperance,-33.87,121.9,53.6,100.0,0.0,9.17,AU,1596035397
67,santo antonio do sudoeste,-26.07,-53.73,55.83,64.0,9.0,5.68,BR,1596035397
68,valdivia,-39.81,-73.25,37.4,100.0,90.0,4.7,CL,1596035101
69,hithadhoo,-0.6,73.08,83.52,77.0,39.0,16.49,MV,1596035398
70,kaitangata,-46.28,169.85,46.99,77.0,100.0,3.0,NZ,1596035398
71,dikson,73.51,80.55,50.16,74.0,100.0,14.9,RU,1596035399
72,khatanga,71.97,102.5,57.07,68.0,2.0,5.5,RU,1596035399
73,bodaybo,57.85,114.19,61.99,83.0,5.0,4.16,RU,1596035399
74,butaritari,3.07,172.79,82.71,77.0,98.0,14.97,KI,1596035400
75,sinnamary,5.38,-52.95,85.75,65.0,0.0,11.83,GF,1596035400
76,sitka,57.05,-135.33,51.8,100.0,1.0,2.68,US,1596035400
77,jurado,7.11,-77.76,83.12,74.0,39.0,4.59,CO,1596035401
78,santa ana,33.75,-117.87,64.99,77.0,90.0,2.66,US,1596035287
79,constitucion,-35.33,-72.42,51.94,53.0,47.0,1.39,CL,1596035401
80,lahij,13.17,44.58,89.29,48.0,59.0,11.27,YE,1596035402
81,tayzhina,53.67,87.44,62.1,90.0,67.0,5.03,RU,1596035402
82,mezen,65.85,44.24,70.61,44.0,3.0,9.26,RU,1596035402
83,bogandinskiy,56.89,65.89,68.0,52.0,63.0,4.47,RU,1596035403
84,bemidji,47.47,-94.88,70.0,73.0,1.0,5.3,US,1596035281
85,japura,-0.32,102.35,75.6,86.0,100.0,2.46,ID,1596035404
86,bethel,41.37,-73.41,84.0,54.0,20.0,8.05,US,1596035375
87,komsomolskiy,40.43,71.72,89.6,21.0,1.0,6.93,UZ,1596035404
88,salalah,17.02,54.09,82.4,88.0,75.0,8.05,OM,1596035405
89,lavrentiya,65.58,-171.0,46.76,93.0,99.0,6.33,RU,1596035405
90,klaksvik,62.23,-6.59,50.0,87.0,100.0,19.46,FO,1596035405
91,severo-kurilsk,50.68,156.12,51.51,90.0,90.0,14.94,RU,1596035406
92,simao,22.79,100.97,67.01,91.0,61.0,2.04,CN,1596035406
93,atuona,-9.8,-139.03,79.36,77.0,12.0,22.24,PF,1596035406
94,kapaa,22.08,-159.32,77.0,83.0,90.0,19.46,US,1596035407
95,qaqortoq,60.72,-46.03,55.4,76.0,75.0,6.93,GL,1596035407
96,mahebourg,-20.41,57.7,73.4,73.0,75.0,8.05,MU,1596035407
97,quatre cocos,-20.21,57.76,73.4,73.0,75.0,8.05,MU,1596035408
98,goure,13.98,10.27,95.0,43.0,15.0,11.01,NE,1596035408
99,roswell,34.02,-84.36,82.0,78.0,90.0,5.41,US,1596035150
100,gisborne,-38.65,178.0,39.0,89.0,85.0,3.0,NZ,1596035369
101,ostrovnoy,68.05,39.51,57.0,70.0,0.0,14.97,RU,1596035409
102,egvekinot,66.32,-179.17,47.89,94.0,100.0,3.53,RU,1596035409
103,solnechnyy,50.72,136.63,70.77,83.0,0.0,3.94,RU,1596035410
104,tiksi,71.69,128.87,40.75,84.0,100.0,8.61,RU,1596035410
105,adrar,20.5,-10.07,103.1,19.0,0.0,11.99,MR,1596035411
106,sobolevo,54.43,31.9,63.39,95.0,100.0,10.02,RU,1596035411
107,daragutan,17.0,122.03,74.73,95.0,100.0,0.6,PH,1596035411
108,bredasdorp,-34.53,20.04,68.0,52.0,0.0,16.11,ZA,1596035412
109,beringovskiy,63.05,179.32,51.15,90.0,17.0,12.71,RU,1596035412
110,port elizabeth,-33.92,25.57,62.6,67.0,0.0,19.46,ZA,1596035412
111,ponta do sol,32.67,-17.1,73.99,60.0,24.0,3.49,PT,1596035413
112,mount gambier,-37.83,140.77,42.8,100.0,75.0,4.7,AU,1596035413
113,te anau,-45.42,167.72,50.32,88.0,100.0,4.99,NZ,1596035370
114,daru,-9.08,143.21,75.25,87.0,97.0,15.61,PG,1596035414
115,haines junction,60.75,-137.51,50.94,84.0,100.0,0.67,CA,1596035414
116,fortuna,40.6,-124.16,55.0,100.0,90.0,0.47,US,1596035414
117,port alfred,-33.59,26.89,63.07,64.0,0.0,16.69,ZA,1596035415
118,bambous virieux,-20.34,57.76,73.4,73.0,75.0,8.05,MU,1596035415
119,phuket,8.0,98.25,86.0,94.0,40.0,1.12,TH,1596035352
120,coihaique,-45.58,-72.07,32.0,88.0,91.0,5.82,CL,1596035415
121,itarema,-2.92,-39.92,87.1,46.0,0.0,13.22,BR,1596035416
122,erzin,36.96,36.2,84.99,85.0,0.0,8.01,TR,1596035416
123,nalut,30.33,10.85,97.3,13.0,0.0,9.22,LY,1596035416
124,eydhafushi,5.1,73.07,82.63,79.0,100.0,18.41,MV,1596035416
125,merrill,45.18,-89.68,71.6,68.0,1.0,5.82,US,1596035364
126,alamos,27.02,-108.93,82.99,73.0,94.0,8.99,MX,1596035349
127,buraydah,26.33,43.98,114.8,18.0,82.0,11.41,SA,1596035418
128,cidreira,-30.18,-50.21,51.33,64.0,73.0,9.44,BR,1596035376
129,tateyama,34.98,139.87,73.0,90.0,99.0,6.76,JP,1596035418
130,kavieng,-2.57,150.8,82.6,66.0,0.0,5.55,PG,1596035418
131,okato,-39.2,173.88,46.0,72.0,98.0,5.99,NZ,1596035336
132,ventspils,57.39,21.56,64.4,68.0,75.0,18.34,LV,1596035223
133,haizhou,34.58,119.13,71.71,94.0,75.0,4.23,CN,1596035419
134,coahuayana,18.73,-103.68,75.2,88.0,40.0,2.53,MX,1596035420
135,mirnyy,62.54,113.96,50.0,87.0,25.0,4.47,RU,1596035420
136,yarmouth,41.71,-70.23,82.0,47.0,1.0,3.36,US,1596035122
137,norman wells,65.28,-126.83,57.2,93.0,90.0,10.29,CA,1596035421
138,ust-tsilma,65.44,52.15,67.08,40.0,12.0,7.47,RU,1596035421
139,pisco,-13.7,-76.22,60.8,77.0,90.0,6.93,PE,1596035421
140,chuy,-33.7,-53.46,49.64,66.0,0.0,7.63,UY,1596035422
141,paraiso,9.84,-83.87,80.6,64.0,28.0,10.29,CR,1596035422
142,lebu,-37.62,-73.65,46.81,56.0,42.0,0.83,CL,1596035423
143,carnarvon,-24.87,113.63,62.6,88.0,0.0,8.05,AU,1596035423
144,sorong,-0.88,131.25,78.73,86.0,66.0,13.09,ID,1596035154
145,poum,-20.23,164.02,73.49,90.0,98.0,23.71,NC,1596035424
146,fare,-16.7,-151.02,79.92,76.0,98.0,18.59,PF,1596035424
147,richmond hill,43.87,-79.44,77.0,66.0,37.0,3.0,CA,1596035384
148,guangshui,31.62,114.0,78.06,88.0,100.0,3.85,CN,1596035425
149,ravar,31.27,56.81,92.01,12.0,0.0,12.59,IR,1596035425
150,carndonagh,55.25,-7.27,60.8,63.0,40.0,8.05,IE,1596035425
151,saint-philippe,-21.36,55.77,71.6,83.0,90.0,18.34,RE,1596035426
152,yurla,59.33,54.32,65.62,85.0,100.0,6.62,RU,1596035426
153,hay river,60.82,-115.8,60.8,77.0,40.0,2.24,CA,1596035426
154,saskylakh,71.92,114.08,51.67,75.0,0.0,6.13,RU,1596035427
155,hami,42.8,93.45,87.12,13.0,100.0,6.62,CN,1596035427
156,torbay,47.67,-52.73,60.01,93.0,90.0,4.7,CA,1596035427
157,prainha,-1.8,-53.48,89.67,40.0,35.0,5.75,BR,1596035428
158,yellowknife,62.46,-114.35,66.99,72.0,20.0,5.82,CA,1596035428
159,santa maria da vitoria,-13.39,-44.19,87.3,30.0,0.0,5.82,BR,1596035428
160,ryotsu,38.08,138.43,73.4,94.0,90.0,1.03,JP,1596035429
161,half moon bay,37.46,-122.43,61.0,100.0,90.0,3.29,US,1596035429
162,provideniya,64.38,-173.3,48.81,91.0,100.0,7.27,RU,1596035429
163,tuatapere,-46.13,167.68,51.67,85.0,100.0,8.9,NZ,1596035430
164,griffith,41.53,-87.42,82.0,61.0,1.0,12.75,US,1596035430
165,port hardy,50.7,-127.42,48.2,100.0,75.0,3.36,CA,1596035430
166,alofi,-19.06,-169.92,68.0,72.0,2.0,10.29,NU,1596035431
167,areosa,41.72,-8.86,90.0,64.0,2.0,6.93,PT,1596035431
168,ust-nera,64.57,143.2,46.45,56.0,44.0,5.03,RU,1596035432
169,new norfolk,-42.78,147.06,46.99,78.0,11.0,3.0,AU,1596035432
170,bilma,18.69,12.92,107.2,11.0,0.0,3.02,NE,1596035432
171,heinola,61.21,26.04,64.99,93.0,75.0,4.7,FI,1596035418
172,kiruna,67.86,20.23,66.2,52.0,20.0,9.17,SE,1596035433
173,katsuura,35.13,140.3,71.6,88.0,75.0,9.17,JP,1596035433
174,vanderhoof,54.02,-124.02,57.13,57.0,98.0,4.23,CA,1596035434
175,tommot,58.96,126.29,58.71,91.0,100.0,4.45,RU,1596035434
176,ellisras,-23.66,27.74,72.32,21.0,0.0,5.41,ZA,1596035435
177,caucaia,-3.74,-38.65,86.0,51.0,40.0,16.11,BR,1596035435
178,hobart,-42.88,147.33,48.2,66.0,16.0,14.99,AU,1596035227
179,de aar,-30.65,24.01,65.14,26.0,0.0,13.82,ZA,1596035436
180,saint-georges,12.06,-61.75,84.2,83.0,20.0,13.87,GD,1596035279
181,cherskiy,68.75,161.3,39.9,87.0,71.0,9.55,RU,1596035437
182,ozark,37.02,-93.21,82.99,79.0,94.0,7.29,US,1596035149
183,portobelo,9.55,-79.65,84.99,78.0,100.0,3.0,PA,1596035437
184,mar del plata,-38.0,-57.56,51.01,53.0,0.0,6.93,AR,1596035302
185,guerrero negro,27.98,-114.06,69.69,78.0,20.0,4.61,MX,1596035438
186,san vicente,-26.62,-54.13,50.85,60.0,15.0,5.77,AR,1596035438
187,avarua,-21.21,-159.78,69.8,88.0,86.0,12.75,CK,1596035439
188,seoul,37.57,126.98,77.0,100.0,75.0,4.09,KR,1596035426
189,olafsvik,64.89,-23.71,51.82,82.0,98.0,3.85,IS,1596035439
190,gushikawa,26.35,127.87,84.2,83.0,20.0,11.41,JP,1596035440
191,benghazi,32.12,20.07,84.42,56.0,0.0,23.64,LY,1596035145
192,ribeira grande,38.52,-28.7,77.0,83.0,40.0,17.22,PT,1596035440
193,mamlyutka,54.94,68.54,59.83,57.0,13.0,3.53,KZ,1596035440
194,shingu,33.73,135.98,75.51,93.0,100.0,2.55,JP,1596035441
195,kapit,2.02,112.93,74.91,94.0,100.0,0.94,MY,1596035441
196,sisimiut,66.94,-53.67,49.84,66.0,90.0,5.57,GL,1596035441
197,esso,55.93,158.7,53.31,78.0,100.0,3.42,RU,1596035442
198,muisne,0.6,-80.03,75.2,100.0,75.0,4.7,EC,1596035442
199,coquimbo,-29.95,-71.34,51.8,81.0,0.0,6.93,CL,1596035442
200,porto novo,6.5,2.6,82.4,74.0,20.0,13.87,BJ,1596035443
201,bela,25.93,81.98,83.93,82.0,98.0,6.8,IN,1596035443
202,trabzon,40.92,39.83,80.6,65.0,40.0,6.93,TR,1596035443
203,maniitsoq,65.42,-52.9,49.24,74.0,4.0,5.26,GL,1596035444
204,isangel,-19.55,169.27,74.37,75.0,84.0,18.01,VU,1596035444
205,keroka,-0.78,34.95,58.05,98.0,79.0,1.05,KE,1596035444
206,pacifica,37.61,-122.49,57.99,93.0,90.0,6.93,US,1596035445
207,bala,32.33,35.11,89.6,55.0,0.0,10.29,PS,1596035445
208,cabedelo,-6.98,-34.83,77.0,88.0,75.0,17.22,BR,1596035445
209,deputatskiy,69.3,139.9,35.17,87.0,18.0,4.85,RU,1596035446
210,tasiilaq,65.61,-37.64,42.8,81.0,75.0,11.41,GL,1596035446
211,tayu,-6.54,111.05,75.42,73.0,58.0,7.52,ID,1596035446
212,chistogorskiy,53.98,87.38,64.45,83.0,63.0,3.0,RU,1596035447
213,tambura,5.6,27.47,78.06,83.0,87.0,3.94,SS,1596035447
214,victoria,22.29,114.16,86.0,74.0,97.0,11.99,HK,1596035423
215,clyde river,70.47,-68.59,44.6,87.0,75.0,6.93,CA,1596035448
216,sucre,-19.03,-65.26,50.0,61.0,40.0,6.89,BO,1596035448
217,diu,20.71,70.98,84.52,79.0,100.0,13.96,IN,1596035448
218,moerai,-22.43,-151.33,72.39,82.0,100.0,23.15,PF,1596035448
219,kaili,-3.46,120.21,67.66,92.0,73.0,0.81,ID,1596035449
220,suntar,62.14,117.63,51.58,88.0,32.0,4.12,RU,1596035449
221,kampot,10.62,104.18,84.2,70.0,40.0,9.17,KH,1596035449
222,kokkola,63.84,23.13,62.6,93.0,100.0,5.82,FI,1596035450
223,kodiak,57.79,-152.41,53.6,76.0,1.0,6.93,US,1596035450
224,high prairie,55.43,-116.49,63.5,80.0,54.0,1.25,CA,1596035450
225,dawlatabad,36.41,64.91,93.49,16.0,0.0,11.39,AF,1596035451
226,nioki,-2.72,17.68,94.26,29.0,94.0,1.63,CD,1596035451
227,ulaangom,49.98,92.07,62.56,73.0,1.0,1.39,MN,1596035451
228,nuuk,64.18,-51.72,46.4,100.0,90.0,2.24,GL,1596035452
229,yamada,39.47,141.95,63.86,86.0,81.0,5.06,JP,1596035452
230,opuwo,-18.06,13.84,80.1,16.0,0.0,5.75,NA,1596035452
231,weeze,51.63,6.2,73.0,40.0,63.0,10.29,DE,1596035453
232,conde,-7.26,-34.91,77.0,88.0,75.0,17.22,BR,1596035453
233,tecoanapa,16.52,-98.75,83.3,77.0,34.0,4.76,MX,1596035453
234,kahului,20.89,-156.47,73.4,78.0,90.0,11.41,US,1596035454
235,college,64.86,-147.8,51.8,81.0,90.0,4.68,US,1596035454
236,lorengau,-2.02,147.27,81.81,66.0,80.0,4.83,PG,1596035454
237,leningradskiy,69.38,178.42,36.45,85.0,38.0,3.67,RU,1596035454
238,warrnambool,-38.38,142.48,48.99,88.0,20.0,10.6,AU,1596035455
239,kruisfontein,-34.0,24.73,63.0,64.0,0.0,1.01,ZA,1596035455
240,sungaipenuh,-2.08,101.38,64.35,94.0,80.0,2.53,ID,1596035455
241,narrabri,-30.32,149.78,48.2,87.0,0.0,4.7,AU,1596035456
242,mwinilunga,-11.74,24.43,81.21,21.0,5.0,3.51,ZM,1596035456
243,mlonggo,-6.53,110.7,76.01,76.0,74.0,6.08,ID,1596035456
244,tautira,-17.73,-149.15,77.0,78.0,20.0,16.11,PF,1596035457
245,rawson,-43.3,-65.1,44.22,60.0,0.0,7.11,AR,1596035457
246,teya,60.38,92.63,57.27,90.0,77.0,3.33,RU,1596035457
247,pavlohrad,48.52,35.87,89.6,29.0,0.0,8.95,UA,1596035458
248,rockford,42.27,-89.09,78.01,69.0,75.0,6.93,US,1596035387
249,yenagoa,4.92,6.26,80.82,77.0,99.0,7.85,NG,1596035458
250,iqaluit,63.75,-68.51,66.2,52.0,75.0,14.99,CA,1596035459
251,necochea,-38.55,-58.74,50.0,69.0,0.0,5.01,AR,1596035459
252,ola,59.58,151.28,54.95,64.0,63.0,11.77,RU,1596035460
253,batemans bay,-35.72,150.18,45.0,100.0,60.0,2.73,AU,1596035460
254,caravelas,-17.71,-39.25,79.66,57.0,0.0,7.16,BR,1596035395
255,port moresby,-9.44,147.18,75.2,94.0,75.0,11.41,PG,1596035461
256,sanmenxia,34.77,111.18,77.14,84.0,0.0,7.67,CN,1596035461
257,bathsheba,13.22,-59.52,84.2,74.0,40.0,26.4,BB,1596035461
258,port lincoln,-34.73,135.87,53.06,87.0,0.0,5.68,AU,1596035462
259,hovd,48.01,91.64,66.58,49.0,42.0,5.5,MN,1596035462
260,vila velha,-20.33,-40.29,81.0,61.0,0.0,13.87,BR,1596035462
261,rocha,-34.48,-54.33,50.41,65.0,0.0,9.01,UY,1596035367
262,sarankhola,22.31,89.79,81.34,89.0,100.0,5.01,BD,1596035463
263,monster,52.03,4.17,68.0,54.0,75.0,12.35,NL,1596035463
264,concordia,-31.39,-58.02,48.2,66.0,0.0,5.82,AR,1596035395
265,san policarpo,12.18,125.51,79.25,86.0,96.0,4.88,PH,1596035464
266,san buenaventura,27.08,-101.53,75.2,88.0,75.0,1.92,MX,1596035464
267,ancud,-41.87,-73.82,44.01,100.0,75.0,2.24,CL,1596035465
268,aykhal,66.0,111.5,55.4,62.0,100.0,4.47,RU,1596035465
269,parrita,9.52,-84.32,80.6,64.0,9.0,10.29,CR,1596035465
270,krasnokholmskiy,55.99,55.05,69.42,81.0,27.0,7.87,RU,1596035465
271,pergamino,-33.89,-60.57,55.99,36.0,0.0,1.99,AR,1596035211
272,aras,42.56,-2.36,89.6,38.0,3.0,8.05,ES,1596035466
273,padang,-0.95,100.35,77.68,77.0,87.0,4.34,ID,1596035466
274,saint-pierre,-21.34,55.48,71.6,83.0,90.0,18.34,RE,1596035467
275,kieta,-6.22,155.63,78.67,76.0,16.0,2.21,PG,1596035467
276,vila franca do campo,37.72,-25.43,73.4,88.0,75.0,11.41,PT,1596035467
277,plavinas,56.62,25.73,68.52,54.0,0.0,12.62,LV,1596035468
278,ilulissat,69.22,-51.1,42.8,75.0,40.0,5.82,GL,1596035468
279,belaya gora,68.53,146.42,41.99,71.0,100.0,4.59,RU,1596035468
280,pasighat,28.07,95.33,75.45,86.0,100.0,2.33,IN,1596035468
281,glendive,47.11,-104.71,75.99,60.0,1.0,4.7,US,1596035469
282,cockburn town,21.46,-71.14,87.8,66.0,40.0,17.22,TC,1596035469
283,trincomalee,8.57,81.23,80.4,80.0,67.0,17.96,LK,1596035469
284,tilichiki,60.47,166.1,50.58,93.0,100.0,1.88,RU,1596035470
285,arlit,18.74,7.39,103.55,17.0,0.0,4.92,NE,1596035470
286,nome,64.5,-165.41,46.99,100.0,90.0,13.87,US,1596035470
287,kuusamo,65.97,29.18,68.0,49.0,75.0,11.41,FI,1596035470
288,kenai,60.55,-151.26,50.0,81.0,1.0,2.75,US,1596035471
289,flinders,-34.58,150.86,55.99,90.0,14.0,1.01,AU,1596035471
290,madang,-5.22,145.8,76.73,86.0,37.0,2.68,PG,1596035471
291,evensk,61.95,159.23,52.77,73.0,95.0,10.33,RU,1596035472
292,nhulunbuy,-12.23,136.77,71.6,68.0,40.0,9.17,AU,1596035473
293,kandrian,-6.22,149.55,77.22,88.0,85.0,4.43,PG,1596035473
294,odessa,46.48,30.73,84.2,48.0,20.0,11.18,UA,1596035456
295,luoyang,34.68,112.45,82.0,99.0,0.0,4.36,CN,1596035474
296,kibala,9.11,18.35,69.8,94.0,75.0,6.93,TD,1596035474
297,syracuse,37.09,15.28,93.2,48.0,0.0,14.99,IT,1596035474
298,asosa,10.07,34.53,66.63,96.0,88.0,3.47,ET,1596035475
299,bagdarin,54.43,113.6,63.27,91.0,100.0,3.36,RU,1596035475
300,arraial do cabo,-22.97,-42.03,77.0,78.0,75.0,14.99,BR,1596035475
301,korsakovo,53.27,37.36,80.01,68.0,0.0,6.82,RU,1596035475
302,emerald,-23.53,148.17,55.4,62.0,0.0,6.93,AU,1596035476
303,namibe,-15.2,12.15,71.6,64.0,40.0,12.75,AO,1596035476
304,christiansburg,37.13,-80.41,82.0,78.0,40.0,4.7,US,1596035476
305,bazaliya,49.71,26.47,77.13,76.0,69.0,9.35,UA,1596035477
306,saldanha,-33.01,17.94,64.4,68.0,0.0,11.41,ZA,1596035477
307,iquitos,-3.75,-73.25,82.4,78.0,3.0,2.24,PE,1596035478
308,bismarck,46.81,-100.78,75.2,53.0,1.0,6.93,US,1596035199
309,asau,46.43,26.4,91.4,33.0,20.0,5.82,RO,1596035479
310,doha,25.29,51.53,100.99,53.0,0.0,6.93,QA,1596035479
311,banepa,27.63,85.52,73.4,88.0,75.0,4.7,NP,1596035480
312,auriflama,-20.69,-50.55,87.58,28.0,23.0,2.95,BR,1596035480
313,miandrivazo,-19.52,45.47,76.19,62.0,40.0,5.73,MG,1596035480
314,iacu,-12.77,-40.21,82.65,45.0,80.0,4.25,BR,1596035480
315,sydney,-33.87,151.21,54.0,87.0,9.0,5.82,AU,1596035309
316,souillac,-20.52,57.52,73.4,73.0,75.0,8.05,MU,1596035481
317,csokmo,47.03,21.3,90.0,46.0,2.0,3.36,HU,1596035481
318,kulhudhuffushi,6.62,73.07,82.65,77.0,100.0,17.11,MV,1596035482
319,luderitz,-26.65,15.16,69.8,43.0,0.0,20.8,NA,1596035483
320,saint george,37.1,-113.58,81.0,16.0,1.0,2.86,US,1596035349
321,viedma,-40.81,-63.0,51.01,66.0,0.0,1.99,AR,1596035484
322,manaus,-3.1,-60.02,91.4,55.0,20.0,4.7,BR,1596035484
323,praya,14.92,-23.51,87.8,62.0,40.0,13.87,CV,1596035484
324,khandbari,27.37,87.2,74.21,72.0,100.0,0.47,NP,1596035484
325,presidente dutra,-5.29,-44.49,91.26,37.0,0.0,7.18,BR,1596035485
326,jambi,-1.6,103.62,74.73,83.0,56.0,1.72,ID,1596035392
327,airai,-8.93,125.41,52.9,96.0,58.0,3.11,TL,1596035485
328,arlington,32.74,-97.11,82.99,78.0,5.0,6.93,US,1596035464
329,wollongong,-34.43,150.88,55.99,90.0,3.0,1.01,AU,1596035422
330,madison,34.73,-86.57,81.0,83.0,90.0,3.36,US,1596035487
331,vilani,56.55,26.92,68.59,65.0,5.0,13.0,LV,1596035487
332,majene,-3.54,118.97,78.03,82.0,48.0,14.9,ID,1596035487
333,goderich,43.75,-81.72,75.99,80.0,50.0,8.03,CA,1596035487
334,fenoarivo atsinanana,-17.37,49.42,71.78,85.0,28.0,4.18,MG,1596035227
335,uarini,-2.99,-65.11,86.0,84.0,20.0,5.82,BR,1596035488
336,sur,22.57,59.53,94.46,50.0,6.0,5.08,OM,1596035489
337,floro,61.6,5.03,59.0,82.0,75.0,8.05,NO,1596035489
338,muros,42.78,-9.06,91.0,40.0,0.0,5.99,ES,1596035489
339,diego de almagro,-26.37,-70.05,75.06,15.0,25.0,4.21,CL,1596035489
340,kuryk,43.2,51.65,78.75,43.0,100.0,26.51,KZ,1596035490
341,dhidhdhoo,6.88,73.1,82.35,78.0,100.0,16.31,MV,1596035490
342,bilibino,68.05,166.44,42.71,65.0,100.0,6.82,RU,1596035491
343,lerwick,60.15,-1.15,53.6,81.0,75.0,23.04,GB,1596035491
344,prieska,-29.66,22.75,71.19,21.0,0.0,10.63,ZA,1596035492
345,peniche,39.36,-9.38,79.0,65.0,7.0,8.01,PT,1596035492
346,elat,29.56,34.95,111.2,25.0,0.0,17.22,IL,1596035492
347,samarai,-10.62,150.67,77.05,84.0,99.0,17.38,PG,1596035492
348,mahibadhoo,3.78,72.97,83.17,76.0,100.0,17.65,MV,1596035493
349,camabatela,-8.19,15.38,84.33,21.0,86.0,7.63,AO,1596035493
350,izumo,35.37,132.77,77.0,94.0,75.0,6.93,JP,1596035494
351,sao pedro do sul,-29.62,-54.18,48.2,61.0,20.0,5.82,BR,1596035494
352,bulungu,-4.55,18.6,97.29,18.0,0.0,3.51,CD,1596035495
353,mayo,38.89,-76.51,89.01,51.0,1.0,8.05,US,1596035495
354,sungai udang,2.27,102.14,78.8,83.0,20.0,2.24,MY,1596035496
355,umm lajj,25.02,37.27,87.93,72.0,0.0,6.64,SA,1596035496
356,kaoma,-14.78,24.8,80.31,20.0,0.0,5.17,ZM,1596035497
357,zyryanka,65.75,150.85,44.08,82.0,69.0,12.03,RU,1596035497
358,trelew,-43.25,-65.31,44.38,59.0,0.0,5.95,AR,1596035498
359,miramar,25.99,-80.23,89.01,70.0,40.0,8.05,US,1596035498
360,umba,66.69,34.34,63.86,66.0,28.0,5.97,RU,1596035498
361,voh,-20.97,164.7,70.43,88.0,99.0,5.28,NC,1596035499
362,longyearbyen,78.22,15.64,53.6,81.0,75.0,3.36,SJ,1596035499
363,launceston,-41.45,147.17,44.6,87.0,26.0,10.29,AU,1596035499
364,tigre,-34.43,-58.58,53.6,34.0,0.0,9.17,AR,1596035500
365,pombas,17.15,-25.02,86.0,62.0,40.0,13.87,CV,1596035500
366,muroto,33.28,134.15,80.1,88.0,0.0,1.77,JP,1596035501
367,batagay-alyta,67.8,130.41,44.01,72.0,0.0,3.31,RU,1596035501
368,anadyr,64.75,177.48,50.0,93.0,40.0,4.47,RU,1596035501
369,san patricio,19.22,-104.7,80.6,83.0,75.0,6.93,MX,1596035502
370,alice springs,-23.7,133.88,44.6,33.0,0.0,7.76,AU,1596035405
371,sawtell,-30.38,153.1,57.2,76.0,3.0,6.93,AU,1596035502
372,vanimo,-2.67,141.3,78.28,85.0,52.0,6.17,PG,1596035503
373,mingaora,34.78,72.36,82.35,57.0,5.0,2.86,PK,1596035503
374,zykovo,55.95,93.15,64.4,88.0,94.0,2.24,RU,1596035504
375,faanui,-16.48,-151.75,79.54,73.0,91.0,16.37,PF,1596035504
376,tolaga bay,-38.37,178.3,45.77,77.0,83.0,2.86,NZ,1596035504
377,methala,10.22,76.22,75.2,100.0,90.0,8.03,IN,1596035505
378,bukachacha,52.98,116.92,66.52,89.0,100.0,2.01,RU,1596035505
379,hualmay,-11.1,-77.61,63.27,67.0,55.0,6.55,PE,1596035506
380,kanlagay,5.88,121.29,80.78,79.0,95.0,4.47,PH,1596035506
381,erenhot,43.65,111.98,82.53,29.0,68.0,8.1,CN,1596035227
382,kedougou,12.56,-12.17,83.44,80.0,64.0,4.83,SN,1596035507
383,asfi,32.3,-9.24,74.5,73.0,0.0,20.98,MA,1596035507
384,tondano,1.3,124.91,77.0,88.0,40.0,2.24,ID,1596035507
385,kerouane,9.27,-9.02,79.97,76.0,14.0,4.27,GN,1596035508
386,puerto colombia,10.99,-74.95,87.8,70.0,40.0,6.93,CO,1596035508
387,barinitas,8.76,-70.41,83.44,56.0,66.0,4.47,VE,1596035509
388,meulaboh,4.14,96.13,79.5,78.0,100.0,5.61,ID,1596035509
389,lompoc,34.64,-120.46,57.2,93.0,90.0,3.36,US,1596035510
390,tabou,4.42,-7.35,77.59,82.0,40.0,12.06,CI,1596035510
391,itoman,26.12,127.67,84.2,83.0,20.0,9.17,JP,1596035511
392,walvis bay,-22.96,14.51,75.2,41.0,0.0,8.05,NA,1596035511
393,sistranda,63.73,8.83,66.0,72.0,40.0,16.11,NO,1596035512
394,carutapera,-1.2,-46.02,88.97,50.0,6.0,3.58,BR,1596035272
395,sakakah,29.97,40.21,116.6,8.0,40.0,4.7,SA,1596035512
396,pevek,69.7,170.31,36.19,88.0,86.0,6.17,RU,1596035513
397,grand gaube,-20.01,57.66,72.0,76.0,9.0,7.0,MU,1596035513
398,tura,25.52,90.22,75.36,97.0,100.0,5.17,IN,1596035514
399,havoysund,71.0,24.66,75.2,77.0,55.0,8.05,NO,1596035514
400,guatire,10.48,-66.54,80.01,63.0,98.0,2.08,VE,1596035515
401,mbabane,-26.32,31.13,77.0,22.0,0.0,9.17,SZ,1596035515
402,hammerfest,70.66,23.68,75.2,47.0,94.0,19.46,NO,1596035515
403,kropotkin,45.44,40.58,84.34,43.0,0.0,4.65,RU,1596035516
404,turbat,26.0,63.04,92.07,56.0,27.0,10.58,PK,1596035516
405,panlaitan,12.12,119.85,81.21,82.0,100.0,11.25,PH,1596035516
406,maragogi,-9.01,-35.22,76.46,83.0,75.0,16.37,BR,1596035425
407,saint anthony,45.02,-93.22,79.0,44.0,1.0,4.76,US,1596035517
408,leshukonskoye,64.9,45.76,70.21,52.0,77.0,2.8,RU,1596035517
409,iquique,-20.22,-70.14,59.0,67.0,0.0,6.93,CL,1596035515
410,baoning,25.34,110.03,80.6,88.0,20.0,2.24,CN,1596035518
411,fort nelson,58.81,-122.7,55.4,82.0,75.0,5.82,CA,1596035518
412,vardo,70.37,31.11,53.6,93.0,75.0,20.8,NO,1596035519
413,sao paulo de olivenca,-3.38,-68.87,83.82,74.0,58.0,1.9,BR,1596035465
414,sao felix do xingu,-6.64,-51.99,91.96,28.0,55.0,4.43,BR,1596035520
415,ibipeba,-11.64,-42.01,79.21,41.0,60.0,9.82,BR,1596035521
416,kasempa,-13.46,25.83,78.24,24.0,11.0,4.21,ZM,1596035521
417,srednekolymsk,67.45,153.68,45.39,84.0,92.0,9.69,RU,1596035521
418,udachnyy,66.42,112.4,55.4,62.0,91.0,4.47,RU,1596035522
419,porto empedocle,37.29,13.53,91.0,38.0,0.0,10.56,IT,1596035522
420,zunheboto,25.97,94.52,64.8,100.0,100.0,0.83,IN,1596035522
421,casma,-41.01,-73.12,39.2,93.0,10.0,1.63,CL,1596035523
422,lolodorf,3.23,10.73,76.55,76.0,100.0,5.3,CM,1596035523
423,port keats,-14.25,129.55,63.9,28.0,0.0,8.34,AU,1596035524
424,hobyo,5.35,48.53,79.21,76.0,13.0,22.48,SO,1596035524
425,boguszow-gorce,50.76,16.2,75.99,19.0,78.0,6.44,PL,1596035524
426,richards bay,-28.78,32.04,67.26,71.0,0.0,6.42,ZA,1596035525
427,teguldet,57.31,88.17,60.87,93.0,89.0,2.86,RU,1596035525
428,tangara,-6.2,-35.8,84.2,69.0,75.0,16.11,BR,1596035525
429,amga,60.9,131.96,55.74,88.0,100.0,3.49,RU,1596035526
430,santona,43.44,-3.46,72.0,78.0,75.0,10.29,ES,1596035526
431,hambantota,6.12,81.12,82.4,78.0,20.0,10.29,LK,1596035526
432,chemodanovka,53.23,45.25,87.01,19.0,93.0,1.72,RU,1596035527
433,tadine,-21.55,167.88,73.13,80.0,99.0,19.89,NC,1596035527
434,berezovyy,51.67,135.7,73.47,75.0,0.0,3.36,RU,1596035528
435,carballo,43.21,-8.69,90.0,57.0,0.0,8.05,ES,1596035528
436,havre-saint-pierre,50.23,-63.6,62.6,77.0,90.0,11.41,CA,1596035528
437,shimoda,34.67,138.95,64.99,96.0,100.0,1.99,JP,1596035529
438,ubinskoye,55.31,79.68,58.48,90.0,100.0,10.36,RU,1596035529
439,emilio carranza,19.97,-96.61,83.41,67.0,100.0,1.92,MX,1596035529
440,leno,45.37,10.22,91.4,52.0,5.0,4.7,IT,1596035530
441,baghdad,33.34,44.4,118.4,14.0,31.0,4.7,IQ,1596035474
442,margate,51.38,1.39,70.0,51.0,24.0,3.0,GB,1596035530
443,liseleje,56.01,11.95,63.0,1.0,91.0,11.01,DK,1596035531
444,suluq,31.67,20.25,96.67,22.0,0.0,24.25,LY,1596035531
445,hofn,64.25,-15.21,53.6,76.0,20.0,12.75,IS,1596035531
446,port hedland,-20.32,118.57,59.0,67.0,0.0,5.82,AU,1596035532
447,sahuaripa,29.05,-109.23,81.05,76.0,93.0,2.06,MX,1596035532
448,rio gallegos,-51.62,-69.22,33.8,74.0,48.0,14.99,AR,1596035424
449,troitskoye,52.98,84.68,61.65,90.0,54.0,5.53,RU,1596035533
450,zhuhai,22.28,113.57,88.0,84.0,20.0,8.05,CN,1596035533
451,cam ranh,11.92,109.16,80.6,88.0,20.0,4.7,VN,1596035256
452,ishigaki,24.34,124.16,85.78,79.0,99.0,17.07,JP,1596035534
453,zavetnoye,47.12,43.89,88.0,21.0,100.0,5.75,RU,1596035534
454,mountain home,43.13,-115.69,64.4,72.0,1.0,4.7,US,1596035437
455,byron bay,-28.65,153.62,57.2,93.0,90.0,8.05,AU,1596035535
456,bayan,46.08,127.4,72.5,74.0,42.0,1.83,CN,1596035536
457,micheweni,-4.97,39.83,77.9,75.0,1.0,15.55,TZ,1596035536
458,ceuta,35.89,-5.31,86.0,78.0,20.0,8.05,ES,1596035536
459,sakaiminato,35.55,133.23,77.0,94.0,75.0,6.93,JP,1596035536
460,lac du bonnet,50.25,-96.06,71.01,99.0,0.0,4.0,CA,1596035537
461,biggar,55.62,-3.52,63.0,55.0,75.0,13.87,GB,1596035537
462,kisanga,-7.44,37.7,80.83,53.0,47.0,2.71,TZ,1596035537
463,krasnyy chikoy,50.36,108.75,62.2,83.0,36.0,2.42,RU,1596035538
464,soyo,-6.13,12.37,78.8,69.0,40.0,9.17,AO,1596035538
465,moose factory,51.26,-80.61,62.6,88.0,90.0,4.7,CA,1596035539
466,la suiza,9.85,-83.61,82.4,64.0,36.0,10.29,CR,1596035539
467,boa esperanca,-21.09,-45.57,79.92,38.0,9.0,5.99,BR,1596035540
468,grindavik,63.84,-22.43,51.8,87.0,90.0,4.7,IS,1596035540
469,paamiut,61.99,-49.67,47.12,94.0,91.0,1.66,GL,1596035541
470,morbegno,46.14,9.57,88.0,56.0,37.0,3.0,IT,1596035541
471,accra,5.56,-0.2,80.6,74.0,20.0,13.87,GH,1596035283
472,bara,10.37,10.73,86.79,61.0,38.0,8.12,NG,1596035541
473,thinadhoo,0.53,72.93,82.98,80.0,1.0,15.68,MV,1596035542
474,manaure,11.78,-72.44,88.14,59.0,57.0,12.73,CO,1596035542
475,kousseri,12.08,15.03,93.2,52.0,20.0,11.41,CM,1596035543
476,ushtobe,45.25,77.98,75.43,25.0,0.0,10.04,KZ,1596035543
477,arapiraca,-9.75,-36.66,77.05,74.0,52.0,15.86,BR,1596035543
478,pervomayskoye,43.92,46.71,81.03,41.0,99.0,13.0,RU,1596035544
479,dalaba,10.7,-12.25,68.36,100.0,91.0,5.46,GN,1596035544
480,ajdabiya,30.76,20.23,89.69,40.0,0.0,22.1,LY,1596035545
481,george,-33.96,22.46,64.4,55.0,0.0,4.7,ZA,1596035545
482,hemnesberget,66.23,13.63,71.6,53.0,40.0,11.41,NO,1596035546
483,kharp,66.8,65.81,57.49,64.0,85.0,2.39,RU,1596035546
484,narsaq,60.92,-46.05,55.4,76.0,75.0,6.93,GL,1596035546
485,puerto gaitan,4.31,-72.08,82.9,69.0,3.0,5.32,CO,1596035547
486,port macquarie,-31.43,152.92,54.0,89.0,3.0,11.21,AU,1596035470
487,churachandpur,24.33,93.67,70.63,97.0,100.0,1.97,IN,1596035547
488,inhambane,-23.86,35.38,75.2,57.0,20.0,11.41,MZ,1596035548
489,burnie,-41.07,145.92,46.0,78.0,0.0,5.01,AU,1596035548
490,boa vista,2.82,-60.67,86.0,66.0,40.0,3.36,BR,1596035549
491,bose,45.46,8.01,90.0,64.0,2.0,3.87,IT,1596035549
492,maumere,-8.62,122.21,77.05,75.0,39.0,9.55,ID,1596035549
493,leh,34.17,77.58,70.52,22.0,12.0,7.45,IN,1596035550
494,kaunas,54.9,23.9,68.0,52.0,8.0,17.22,LT,1596035550
495,naryan-mar,67.67,53.09,58.95,56.0,63.0,11.9,RU,1596035551
496,romilly-sur-seine,48.51,3.73,78.8,34.0,28.0,5.82,FR,1596035551
497,iralaya,15.0,-83.23,80.6,88.0,75.0,6.93,HN,1596035552
498,menongue,-14.66,17.69,82.08,15.0,0.0,5.46,AO,1596035552
499,cacoal,-11.44,-61.45,90.0,33.0,0.0,6.78,BR,1596035312
500,praia da vitoria,38.73,-27.07,84.2,62.0,40.0,15.95,PT,1596035553
501,trairi,-3.28,-39.27,87.35,45.0,0.0,12.91,BR,1596035553
502,canela,-29.37,-50.82,54.0,75.0,0.0,1.99,BR,1596035553
503,wucheng,29.6,118.17,78.26,83.0,100.0,2.04,CN,1596035554
504,malaut,30.22,74.48,96.84,41.0,4.0,8.99,IN,1596035554
505,santa luzia,-19.77,-43.85,78.8,39.0,20.0,3.36,BR,1596035555
506,meadow lake,34.8,-106.54,75.0,60.0,20.0,4.7,US,1596035555
507,tumut,-35.3,148.22,41.61,89.0,2.0,2.42,AU,1596035555
508,tazovskiy,67.47,78.7,55.42,74.0,0.0,4.34,RU,1596035556
509,el nispero,14.77,-88.33,79.81,62.0,99.0,1.79,HN,1596035556
510,mareeba,-17.0,145.43,57.2,67.0,0.0,9.17,AU,1596035557
511,dubti,11.74,41.09,97.38,31.0,0.0,5.14,ET,1596035557
512,aklavik,68.22,-135.01,50.0,93.0,90.0,4.7,CA,1596035557
513,portland,45.52,-122.68,66.0,72.0,40.0,3.15,US,1596035423
514,batagay,67.63,134.63,43.11,68.0,1.0,3.27,RU,1596035558
515,beloha,-25.17,45.05,67.33,66.0,0.0,6.44,MG,1596035559
516,kutum,14.2,24.67,89.78,21.0,99.0,14.72,SD,1596035559
517,alto araguaia,-17.31,-53.22,88.47,25.0,13.0,3.11,BR,1596035559
518,castrillon,43.4,-6.79,68.0,77.0,75.0,10.29,ES,1596035560
519,sioux lookout,50.1,-91.92,62.6,82.0,75.0,5.82,CA,1596035560
520,labuan,5.28,115.24,78.8,94.0,40.0,3.36,MY,1596035560
521,teknaf,20.86,92.31,81.59,86.0,100.0,6.51,BD,1596035561
522,sangueya,10.7,-14.37,80.19,83.0,97.0,11.39,GN,1596035561
523,broken hill,-31.95,141.43,42.8,35.0,0.0,6.35,AU,1596035562
524,darhan,49.49,105.92,64.87,77.0,43.0,3.31,MN,1596035562
525,potam,27.6,-110.38,84.0,69.0,40.0,9.17,MX,1596035563
526,yar-sale,66.83,70.83,55.22,75.0,99.0,0.72,RU,1596035563
527,porto torres,40.84,8.4,95.0,41.0,0.0,8.05,IT,1596035564
528,muscat,23.61,58.59,102.2,35.0,7.0,1.12,OM,1596035564
529,luanda,-8.84,13.23,75.2,69.0,75.0,6.93,AO,1596035565
530,hamilton,39.18,-84.53,84.99,58.0,1.0,4.7,US,1596035347
531,port blair,11.67,92.75,82.72,78.0,100.0,11.61,IN,1596035565
532,otane,-39.88,176.63,34.0,92.0,76.0,1.81,NZ,1596035334
533,dandong,40.13,124.39,71.15,94.0,91.0,2.28,CN,1596035566
534,altamira,-3.2,-52.21,91.13,39.0,20.0,3.38,BR,1596035567
535,beira,-19.84,34.84,73.4,56.0,20.0,10.29,MZ,1596035324
536,feijo,-8.16,-70.35,88.03,48.0,0.0,4.27,BR,1596035567
537,rio grande,-32.03,-52.1,53.6,50.0,10.0,9.17,BR,1596035295
538,pangnirtung,66.15,-65.71,48.2,100.0,75.0,8.05,CA,1596035465
539,la ronge,55.1,-105.28,68.0,77.0,20.0,9.17,CA,1596035569
540,minab,27.15,57.08,98.6,63.0,1.0,9.17,IR,1596035569
541,oriximina,-1.77,-55.87,91.65,35.0,0.0,6.17,BR,1596035569
542,nanortalik,60.14,-45.24,46.69,93.0,100.0,9.71,GL,1596035569
543,sayyan,15.17,44.32,64.08,73.0,98.0,5.77,YE,1596035570
544,vestmannaeyjar,63.44,-20.27,53.6,87.0,40.0,10.29,IS,1596035570
545,metro,-5.11,105.31,73.51,85.0,45.0,3.27,ID,1596035571
546,sirsaganj,27.05,78.7,82.18,81.0,100.0,7.25,IN,1596035571
547,xuddur,4.12,43.89,82.92,52.0,67.0,15.3,SO,1596035571
548,vao,-22.67,167.48,69.98,88.0,100.0,27.45,NC,1596035572
549,bud,39.45,-86.18,80.01,65.0,1.0,2.33,US,1596035572
550,crib point,-38.35,145.2,51.01,91.0,1.0,11.32,AU,1596035572
551,vuktyl,63.86,57.31,64.53,62.0,28.0,8.46,RU,1596035573
552,mennecy,48.57,2.44,81.0,31.0,10.0,3.36,FR,1596035573
553,lagoa,39.05,-27.98,73.85,88.0,0.0,23.67,PT,1596035574
