,City,Lat,Lng,Max Temp,Humidity,Cloudiness,Wind Speed,Country,Date
0,butaritari,3.07,172.79,299.67,86.0,100.0,7.64,KI,1595967190.0
1,saskylakh,71.92,114.08,282.02,66.0,63.0,1.61,RU,1595967126.0
2,hilo,19.73,-155.09,302.15,54.0,40.0,3.6,US,1595967190.0
3,busselton,-33.65,115.33,282.04,99.0,99.0,2.23,AU,1595967191.0
4,port blair,11.67,92.75,301.37,79.0,97.0,8.05,IN,1595967191.0
5,ushuaia,-54.8,-68.3,275.15,90.0,75.0,14.4,AR,1595967019.0
6,torbay,47.67,-52.73,291.48,68.0,75.0,4.6,CA,1595967192.0
7,kismayo,-0.36,42.55,298.35,83.0,5.0,7.39,SO,1595967192.0
8,mandalgovi,45.76,106.27,290.9,54.0,42.0,3.12,MN,1595967192.0
9,katsuura,35.13,140.3,296.15,88.0,75.0,4.6,JP,1595967193.0
10,barrow,71.29,-156.79,277.15,86.0,90.0,11.8,US,1595967193.0
11,buala,-8.14,159.59,300.71,78.0,96.0,2.73,SB,1595967193.0
12,jamestown,42.1,-79.24,300.37,50.0,40.0,5.1,US,1595966951.0
13,husavik,66.04,-17.34,283.15,71.0,75.0,5.7,IS,1595967194.0
14,upernavik,72.79,-56.15,279.48,82.0,83.0,4.04,GL,1595966942.0
15,qaanaaq,77.48,-69.36,280.55,66.0,0.0,2.12,GL,1595967195.0
16,georgetown,5.41,100.34,300.15,94.0,40.0,1.0,MY,1595967196.0
17,pastos bons,-6.6,-44.08,305.15,28.0,23.0,3.23,BR,1595967196.0
18,chokurdakh,70.63,147.92,278.28,89.0,100.0,4.83,RU,1595967196.0
19,cape town,-33.93,18.42,286.15,71.0,20.0,4.6,ZA,1595966846.0
20,dikson,73.51,80.55,279.23,82.0,93.0,7.89,RU,1595967197.0
21,joao pinheiro,-17.74,-46.17,297.99,47.0,52.0,2.86,BR,1595967197.0
22,kita,13.03,-9.49,298.23,85.0,91.0,1.14,ML,1595967198.0
23,sitka,57.05,-135.33,289.15,77.0,75.0,2.6,US,1595967198.0
24,lensk,60.73,114.93,285.0,93.0,100.0,2.61,RU,1595967198.0
25,la oroya,-11.52,-75.9,287.02,33.0,0.0,5.31,PE,1595967199.0
26,bredasdorp,-34.53,20.04,284.15,81.0,0.0,1.5,ZA,1595967199.0
27,new norfolk,-42.78,147.06,278.15,92.0,100.0,1.22,AU,1595967199.0
28,talnakh,69.49,88.4,285.15,62.0,100.0,6.0,RU,1595967200.0
29,jingdezhen,29.29,117.21,297.96,92.0,100.0,1.03,CN,1595967200.0
30,puerto madryn,-42.77,-65.04,282.72,51.0,0.0,6.28,AR,1595967166.0
31,rikitea,-23.12,-134.97,295.53,77.0,94.0,7.85,PF,1595967200.0
32,atuona,-9.8,-139.03,299.69,73.0,0.0,11.18,PF,1595967201.0
33,iqaluit,63.75,-68.51,294.15,49.0,20.0,5.7,CA,1595967145.0
34,carnarvon,-24.87,113.63,290.15,82.0,0.0,6.2,AU,1595967202.0
35,port elizabeth,-33.92,25.57,289.15,87.0,0.0,5.7,ZA,1595967050.0
36,chalmette,29.94,-89.96,302.04,83.0,90.0,5.1,US,1595966943.0
37,dabat,12.98,37.77,284.97,100.0,100.0,1.54,ET,1595967203.0
38,punta arenas,-53.15,-70.92,278.15,56.0,33.0,8.2,CL,1595967203.0
39,green valley,31.85,-110.99,311.15,21.0,1.0,0.94,US,1595967203.0
40,vanimo,-2.67,141.3,298.25,82.0,52.0,1.54,PG,1595967204.0
41,puerto ayora,-0.74,-90.35,296.15,73.0,20.0,8.2,EC,1595967017.0
42,mar del plata,-38.0,-57.56,282.04,67.0,69.0,3.13,AR,1595967016.0
43,sinnamary,5.38,-52.95,301.33,82.0,8.0,6.55,GF,1595967204.0
44,mataura,-46.19,168.86,278.71,87.0,61.0,0.89,NZ,1595966949.0
45,avarua,-21.21,-159.78,295.15,83.0,30.0,3.6,CK,1595966923.0
46,hithadhoo,-0.6,73.08,301.42,75.0,92.0,4.67,MV,1595967206.0
47,belyy yar,53.6,91.39,285.15,100.0,0.0,1.42,RU,1595967206.0
48,awjilah,29.11,21.29,300.28,52.0,0.0,7.16,LY,1595967206.0
49,rio grande,-32.03,-52.1,285.15,46.0,75.0,7.2,BR,1595967036.0
50,itarema,-2.92,-39.92,300.37,68.0,0.0,7.98,BR,1595967207.0
51,hermanus,-34.42,19.23,281.48,94.0,4.0,2.39,ZA,1595967207.0
52,shingu,33.73,135.98,297.28,95.0,100.0,2.21,JP,1595967207.0
53,east london,-33.02,27.91,292.02,60.0,0.0,4.9,ZA,1595967208.0
54,thunder bay,48.4,-89.32,293.15,82.0,75.0,2.6,CA,1595967173.0
55,yellowknife,62.46,-114.35,291.15,77.0,75.0,2.6,CA,1595967208.0
56,baykalsk,51.51,104.15,287.03,71.0,97.0,0.72,RU,1595967209.0
57,kahului,20.89,-156.47,301.15,58.0,75.0,8.2,US,1595966934.0
58,arona,28.1,-16.68,297.59,69.0,0.0,10.3,ES,1595967209.0
59,baruun-urt,46.68,113.28,288.71,81.0,97.0,2.68,MN,1595967210.0
60,leningradskiy,69.38,178.42,277.55,72.0,100.0,1.53,RU,1595967210.0
61,kurilsk,45.23,147.88,285.09,83.0,0.0,1.93,RU,1595967128.0
62,cairns,-16.92,145.77,290.15,42.0,0.0,3.1,AU,1595966921.0
63,grand gaube,-20.01,57.66,293.15,85.0,29.0,0.45,MU,1595967211.0
64,rogatica,43.8,19.0,295.15,73.0,0.0,1.0,BA,1595967211.0
65,hobart,-42.88,147.33,279.15,87.0,100.0,3.6,AU,1595967193.0
66,gwadar,25.12,62.33,302.16,83.0,40.0,4.14,PK,1595967049.0
67,khatanga,71.97,102.5,282.77,70.0,0.0,1.72,RU,1595967212.0
68,ponta do sol,32.67,-17.1,296.15,69.0,40.0,7.2,PT,1595967213.0
69,dawlatabad,36.41,64.91,299.66,23.0,0.0,1.26,AF,1595967213.0
70,rio gallegos,-51.62,-69.22,277.15,89.0,61.0,6.2,AR,1595967213.0
71,lagoa vermelha,-28.21,-51.53,282.22,97.0,100.0,3.26,BR,1595966953.0
72,mopipi,-21.18,24.88,284.75,44.0,0.0,1.28,BW,1595967214.0
73,ngunguru,-35.62,174.5,287.04,3.0,100.0,2.68,NZ,1595967214.0
74,birjand,32.87,59.22,298.15,16.0,0.0,9.79,IR,1595967210.0
75,tautira,-17.73,-149.15,301.15,65.0,40.0,8.2,PF,1595967215.0
76,nemuro,43.32,145.57,288.39,87.0,98.0,2.76,JP,1595967215.0
77,arraial do cabo,-22.97,-42.03,301.15,65.0,0.0,5.7,BR,1595967216.0
78,nanortalik,60.14,-45.24,281.66,93.0,100.0,3.43,GL,1595967216.0
79,etne,59.66,5.93,288.15,77.0,93.0,0.89,NO,1595967216.0
80,vaini,-21.2,-175.2,293.15,82.0,75.0,8.7,TO,1595967217.0
81,bintulu,3.17,113.03,299.15,94.0,40.0,2.6,MY,1595967217.0
82,tuktoyaktuk,69.45,-133.04,282.15,93.0,90.0,4.1,CA,1595967218.0
83,usinsk,65.99,57.53,284.1,76.0,68.0,4.69,RU,1595967218.0
84,solnechnyy,50.72,136.63,292.56,88.0,10.0,0.96,RU,1595967218.0
85,port shepstone,-30.74,30.45,290.36,59.0,0.0,3.83,ZA,1595967219.0
86,karratha,-20.74,116.85,291.74,30.0,0.0,2.26,AU,1595967219.0
87,albany,42.6,-73.97,303.15,43.0,100.0,3.75,US,1595967219.0
88,salalah,17.02,54.09,300.15,94.0,75.0,3.1,OM,1595967220.0
89,seymchan,62.88,152.43,287.12,81.0,100.0,6.04,RU,1595967220.0
90,provideniya,64.38,-173.3,282.15,70.0,90.0,5.0,RU,1595967220.0
91,necochea,-38.55,-58.74,280.93,91.0,92.0,4.47,AR,1595967221.0
92,castro,-24.79,-50.01,293.89,58.0,92.0,2.97,BR,1595967221.0
93,ostrovnoy,68.05,39.51,285.52,92.0,40.0,2.96,RU,1595967222.0
94,fort nelson,58.81,-122.7,292.15,42.0,75.0,2.1,CA,1595967222.0
95,bolshaya dzhalga,45.97,42.7,298.25,38.0,100.0,1.38,RU,1595967223.0
96,esperance,-33.87,121.9,283.15,87.0,90.0,3.1,AU,1595967223.0
97,severo-kurilsk,50.68,156.12,284.08,89.0,93.0,6.95,RU,1595967223.0
98,tevaitoa,-16.78,-151.5,299.52,77.0,100.0,9.18,PF,1595967223.0
99,port-cartier,50.03,-66.87,290.15,72.0,75.0,8.2,CA,1595967224.0
100,harper,4.38,-7.72,297.07,83.0,65.0,4.33,LR,1595966945.0
101,bluff,-46.6,168.33,279.26,86.0,70.0,1.34,NZ,1595967225.0
102,mount gambier,-37.83,140.77,276.15,93.0,75.0,3.1,AU,1595967225.0
103,san cristobal,7.77,-72.22,306.15,49.0,40.0,5.7,VE,1595967110.0
104,laizhou,37.18,119.93,293.76,92.0,0.0,2.35,CN,1595967226.0
105,lagos,6.58,3.75,296.95,87.0,0.0,2.57,NG,1595966671.0
106,chuy,-33.7,-53.46,282.35,70.0,2.0,2.9,UY,1595967226.0
107,vitim,59.45,112.56,286.07,93.0,100.0,0.48,RU,1595967126.0
108,oktyabrskoye,43.06,44.74,293.15,82.0,82.0,5.0,RU,1595967227.0
109,ahipara,-35.17,173.17,285.35,83.0,100.0,3.8,NZ,1595967227.0
110,baglan,36.13,68.71,300.48,19.0,0.0,0.8,AF,1595967227.0
111,korla,41.76,86.15,302.04,43.0,44.0,2.68,CN,1595967228.0
112,nova olimpia,-14.8,-57.29,308.18,20.0,78.0,0.23,BR,1595967228.0
113,lorengau,-2.02,147.27,300.67,73.0,43.0,2.4,PG,1595967228.0
114,hirara,24.8,125.28,302.57,79.0,0.0,7.97,JP,1595967229.0
115,bilma,18.69,12.92,308.23,26.0,27.0,4.18,NE,1595967186.0
116,ribeira grande,38.52,-28.7,298.15,83.0,40.0,2.1,PT,1595967230.0
117,christchurch,-43.53,172.63,279.82,100.0,100.0,1.0,NZ,1595967206.0
118,lichuan,30.3,108.85,290.62,93.0,22.0,0.99,CN,1595967230.0
119,shibganj,24.68,88.16,301.3,83.0,100.0,1.97,BD,1595967231.0
120,marsh harbour,26.54,-77.06,302.1,68.0,83.0,4.0,BS,1595967231.0
121,touros,-5.2,-35.46,299.15,65.0,20.0,4.1,BR,1595967231.0
122,jacareacanga,-6.22,-57.75,308.15,30.0,20.0,2.1,BR,1595967232.0
123,puerto carreno,6.19,-67.49,306.15,49.0,40.0,4.1,CO,1595967232.0
124,lompoc,34.64,-120.46,292.59,77.0,10.0,4.6,US,1595967023.0
125,longyearbyen,78.22,15.64,289.15,63.0,100.0,2.6,SJ,1595967232.0
126,cayenne,4.93,-52.33,304.15,62.0,75.0,6.2,GF,1595967233.0
127,pringsewu,-5.36,104.97,295.32,94.0,96.0,1.42,ID,1595967233.0
128,okha,53.57,142.95,287.88,88.0,0.0,5.23,RU,1595967233.0
129,kamaishi,39.27,141.88,292.47,91.0,100.0,2.75,JP,1595967234.0
130,surt,31.21,16.59,298.48,79.0,1.0,4.64,LY,1595967234.0
131,kieta,-6.22,155.63,299.33,75.0,100.0,1.83,PG,1595967234.0
132,saldanha,-33.01,17.94,284.15,76.0,0.0,2.1,ZA,1595967235.0
133,saint-philippe,-21.36,55.77,295.15,73.0,100.0,8.7,RE,1595967235.0
134,kapaa,22.08,-159.32,300.15,74.0,90.0,7.2,US,1595967236.0
135,anloga,5.79,0.9,297.15,88.0,20.0,5.1,GH,1595967236.0
136,fortuna,40.6,-124.16,293.71,77.0,1.0,6.7,US,1595967236.0
137,norman wells,65.28,-126.83,290.15,77.0,75.0,4.1,CA,1595967237.0
138,srednekolymsk,67.45,153.68,284.21,54.0,90.0,2.11,RU,1595967237.0
139,orissaare,58.56,23.08,291.15,88.0,66.0,4.1,EE,1595967237.0
140,paamiut,61.99,-49.67,281.2,96.0,100.0,3.47,GL,1595967238.0
141,igrim,63.19,64.42,281.09,80.0,2.0,1.69,RU,1595967238.0
142,richards bay,-28.78,32.04,290.4,74.0,0.0,4.91,ZA,1595967239.0
143,black diamond,47.31,-122.0,298.15,63.0,0.0,2.6,US,1595967239.0
144,portobelo,9.55,-79.65,304.15,70.0,40.0,4.1,PA,1595967239.0
145,havre,49.58,0.33,289.15,72.0,45.0,5.1,FR,1595967240.0
146,maura,60.25,11.02,285.93,87.0,40.0,5.1,NO,1595967240.0
147,kalemie,-5.95,29.19,294.15,58.0,4.0,1.4,CD,1595967240.0
148,duki,30.15,68.57,304.41,39.0,0.0,1.81,PK,1595967241.0
149,henties bay,-22.12,14.28,286.48,92.0,0.0,0.45,NA,1595967241.0
150,samarai,-10.62,150.67,298.89,86.0,74.0,5.59,PG,1595967242.0
151,west wendover,40.74,-114.07,303.15,27.0,1.0,3.6,US,1595967242.0
152,townsville,-19.25,146.8,285.15,54.0,0.0,3.1,AU,1595966943.0
153,hermiston,45.84,-119.29,310.37,24.0,1.0,5.7,US,1595967144.0
154,sumy,50.92,34.8,293.12,74.0,0.0,2.17,UA,1595967243.0
155,port alfred,-33.59,26.89,289.21,72.0,2.0,3.63,ZA,1595967243.0
156,gotsu,35.0,132.22,296.81,94.0,100.0,1.08,JP,1595967244.0
157,cabedelo,-6.98,-34.83,298.15,73.0,20.0,4.6,BR,1595967175.0
158,pimenta bueno,-11.67,-61.19,307.35,29.0,61.0,1.29,BR,1595967244.0
159,stirion,38.4,22.72,300.37,57.0,0.0,1.34,GR,1595967245.0
160,naron,43.52,-8.15,292.04,76.0,36.0,2.24,ES,1595967245.0
161,geraldton,-28.77,114.6,281.15,93.0,0.0,2.1,AU,1595967245.0
162,honiara,-9.43,159.95,297.15,100.0,75.0,2.1,SB,1595966950.0
163,troitsko-pechorsk,62.71,56.2,286.04,71.0,1.0,1.59,RU,1595967246.0
164,thompson,55.74,-97.86,292.15,68.0,75.0,3.1,CA,1595967186.0
165,charters towers,-20.1,146.27,282.2,52.0,0.0,3.26,AU,1595967247.0
166,fairbanks,64.84,-147.72,287.15,76.0,90.0,2.93,US,1595967247.0
167,elk city,35.41,-99.4,302.15,62.0,75.0,2.1,US,1595967247.0
168,mouila,-1.87,11.06,297.63,67.0,80.0,2.31,GA,1595967248.0
169,aromashevo,56.86,68.64,281.33,85.0,86.0,1.83,RU,1595967248.0
170,saint anthony,45.02,-93.22,301.48,51.0,75.0,3.1,US,1595967248.0
171,olutanga,7.31,122.85,300.62,77.0,100.0,1.57,PH,1595967249.0
172,binzhou,37.37,118.02,297.25,75.0,15.0,1.19,CN,1595967249.0
173,zhigansk,66.77,123.37,280.32,77.0,0.0,9.5,RU,1595967249.0
174,uyuni,-20.46,-66.83,284.51,29.0,0.0,7.22,BO,1595967250.0
175,koslan,63.46,48.9,288.7,84.0,99.0,1.96,RU,1595967250.0
176,namibe,-15.2,12.15,292.12,81.0,91.0,3.45,AO,1595967250.0
177,verkhnyaya toyma,62.23,45.0,288.6,78.0,68.0,0.73,RU,1595967251.0
178,guerrero negro,27.98,-114.06,298.79,54.0,6.0,6.85,MX,1595967251.0
179,sobolevo,54.43,31.9,291.51,90.0,100.0,2.72,RU,1595967251.0
180,akyab,20.15,92.9,301.1,82.0,99.0,2.89,MM,1595967252.0
181,alikalia,9.17,-11.4,294.4,97.0,100.0,1.16,SL,1595967252.0
182,honningsvag,70.98,25.97,291.15,63.0,46.0,1.0,NO,1595967252.0
183,victoria,22.29,114.16,302.04,83.0,79.0,2.39,HK,1595967149.0
184,alofi,-19.06,-169.92,296.15,69.0,40.0,4.1,NU,1595967253.0
185,bilibino,68.05,166.44,283.4,57.0,99.0,0.86,RU,1595967253.0
186,prado,-17.34,-39.22,296.11,76.0,82.0,3.22,BR,1595967254.0
187,katobu,-4.94,122.53,295.03,88.0,90.0,1.39,ID,1595967254.0
188,hit,33.64,42.83,310.18,10.0,0.0,0.58,IQ,1595967255.0
189,elat,29.56,34.95,310.15,30.0,13.0,5.1,IL,1595967255.0
190,klaksvik,62.23,-6.59,281.15,93.0,100.0,11.8,FO,1595967255.0
191,ilheus,-14.79,-39.05,300.15,57.0,50.0,4.1,BR,1595967256.0
192,nikolskoye,59.7,30.79,290.37,88.0,20.0,4.0,RU,1595967256.0
193,visnes,59.36,5.22,287.59,100.0,95.0,8.2,NO,1595967256.0
194,ancud,-41.87,-73.82,281.15,75.0,75.0,2.6,CL,1595967257.0
195,raga,8.46,25.68,294.98,93.0,100.0,0.75,SS,1595967257.0
196,portland,45.52,-122.68,302.04,47.0,20.0,3.6,US,1595967240.0
197,lubumbashi,-11.66,27.48,287.29,55.0,0.0,2.64,CD,1595967062.0
198,cidreira,-30.18,-50.21,284.41,72.0,100.0,4.97,BR,1595967258.0
199,darhan,49.49,105.92,288.66,74.0,6.0,0.98,MN,1595967258.0
200,nagua,19.38,-69.85,300.15,100.0,40.0,2.1,DO,1595967259.0
201,azangaro,-14.92,-70.22,290.15,9.0,0.0,3.1,PE,1595967259.0
202,kurumkan,54.3,110.3,288.76,86.0,99.0,0.82,RU,1595967260.0
203,holzminden,51.83,9.45,289.82,67.0,0.0,2.7,DE,1595967260.0
204,bengkulu,-3.8,102.27,296.82,91.0,100.0,1.65,ID,1595967260.0
205,moose factory,51.26,-80.61,293.15,82.0,1.0,2.6,CA,1595967261.0
206,san quintin,30.48,-115.95,296.05,65.0,8.0,7.36,MX,1595967261.0
207,nishihara,26.18,127.76,301.15,88.0,40.0,4.1,JP,1595967261.0
208,goderich,43.75,-81.72,299.82,78.0,0.0,0.45,CA,1595966970.0
209,seoul,37.57,126.98,296.15,94.0,90.0,1.25,KR,1595966593.0
210,de aar,-30.65,24.01,283.67,45.0,0.0,2.93,ZA,1595967263.0
211,sioux lookout,50.1,-91.92,295.15,56.0,75.0,6.7,CA,1595967263.0
212,aksu,41.12,80.26,298.3,25.0,81.0,0.52,CN,1595967263.0
213,faanui,-16.48,-151.75,299.35,77.0,100.0,9.09,PF,1595967264.0
214,narsaq,60.92,-46.05,285.15,71.0,75.0,3.1,GL,1595967264.0
215,bambous virieux,-20.34,57.76,294.15,83.0,40.0,3.1,MU,1595967264.0
216,yulara,-25.24,130.99,278.15,48.0,0.0,4.1,AU,1595967265.0
217,pevek,69.7,170.31,274.86,87.0,99.0,4.14,RU,1595967265.0
218,vostok,46.49,135.88,288.87,100.0,0.0,1.48,RU,1595967266.0
219,ulladulla,-35.35,150.47,284.26,81.0,71.0,4.1,AU,1595967266.0
220,waipawa,-41.41,175.52,281.48,93.0,100.0,2.1,NZ,1595967266.0
221,tapes,-30.67,-51.4,284.25,68.0,6.0,4.7,BR,1595967267.0
222,kodiak,57.79,-152.41,295.15,43.0,1.0,4.1,US,1595967267.0
223,olivenza,38.68,-7.1,307.15,34.0,0.0,4.1,ES,1595967267.0
224,ketchikan,55.34,-131.65,290.15,67.0,40.0,6.7,US,1595967268.0
225,lebu,-37.62,-73.65,282.68,74.0,0.0,7.08,CL,1595967183.0
226,maneadero,31.72,-116.57,298.71,44.0,12.0,3.13,MX,1595967268.0
227,batagay-alyta,67.8,130.41,280.41,81.0,100.0,2.01,RU,1595967269.0
228,tasiilaq,65.61,-37.64,279.15,93.0,34.0,3.6,GL,1595967269.0
229,gebre guracha,9.8,38.4,285.85,93.0,100.0,1.27,ET,1595967269.0
230,sinnai,39.3,9.2,303.15,69.0,0.0,2.6,IT,1595967270.0
231,nome,64.5,-165.41,283.15,93.0,90.0,7.7,US,1595967270.0
232,kiunga,-6.12,141.29,296.32,99.0,100.0,0.82,PG,1595967270.0
233,wanning,18.8,110.4,300.41,87.0,70.0,3.57,CN,1595967271.0
234,qaqortoq,60.72,-46.03,285.15,71.0,75.0,3.1,GL,1595967271.0
235,yerofey pavlovich,53.97,121.97,290.42,92.0,100.0,1.0,RU,1595967271.0
236,yeppoon,-23.13,150.73,280.15,93.0,0.0,3.26,AU,1595967271.0
237,sibiti,-3.68,13.35,296.06,64.0,79.0,2.38,CG,1595967272.0
238,staunton,38.15,-79.07,306.48,52.0,40.0,1.5,US,1595967272.0
239,clevedon,51.44,-2.86,289.82,82.0,40.0,5.1,GB,1595967272.0
240,potlogi,44.55,25.58,301.48,51.0,0.0,3.1,RO,1595967273.0
241,kochki,54.34,80.48,285.93,93.0,35.0,2.63,RU,1595967273.0
242,mersing,2.43,103.84,297.15,94.0,100.0,2.6,MY,1595967273.0
243,van,38.49,43.38,294.15,49.0,75.0,1.5,TR,1595967274.0
244,cherskiy,68.75,161.3,280.21,60.0,13.0,5.56,RU,1595967274.0
245,bundaberg,-24.85,152.35,283.71,66.0,0.0,3.1,AU,1595967275.0
246,sovetskaya gavan,48.97,140.29,288.27,96.0,48.0,1.87,RU,1595967276.0
247,kaitangata,-46.28,169.85,280.93,73.0,53.0,1.34,NZ,1595967276.0
248,puerto suarez,-18.95,-57.8,305.15,52.0,75.0,4.1,BO,1595967276.0
249,jaguaruna,-28.61,-49.03,285.3,92.0,100.0,6.6,BR,1595967277.0
250,svetlyy,54.67,20.13,292.15,93.0,75.0,1.0,RU,1595967277.0
251,port hardy,50.7,-127.42,290.15,67.0,75.0,6.2,CA,1595967278.0
252,baherden,38.44,57.43,307.62,28.0,0.0,1.27,TM,1595967278.0
253,dolores,-36.31,-57.68,281.79,60.0,10.0,3.68,AR,1595967279.0
254,cockburn town,21.46,-71.14,304.15,66.0,40.0,7.2,TC,1595967279.0
255,pisco,-13.7,-76.22,291.15,72.0,40.0,3.6,PE,1595967279.0
256,kruisfontein,-34.0,24.73,286.48,89.0,19.0,3.61,ZA,1595967280.0
257,ambilobe,-13.2,49.05,296.89,79.0,85.0,0.8,MG,1595967280.0
258,uva,56.99,52.19,290.93,88.0,94.0,1.8,RU,1595967281.0
259,vila do maio,15.13,-23.22,301.15,74.0,40.0,4.1,CV,1595967281.0
260,atar,20.52,-13.05,310.18,9.0,0.0,1.76,MR,1595967281.0
261,laguna,38.42,-121.42,305.37,35.0,1.0,3.1,US,1595967281.0
262,floro,61.6,5.03,287.15,87.0,40.0,3.1,NO,1595967282.0
263,nakuru,-0.28,36.07,288.06,84.0,99.0,3.85,KE,1595967282.0
264,wuxue,29.85,115.55,297.68,93.0,99.0,1.09,CN,1595967282.0
265,lata,40.16,-8.33,295.93,93.0,0.0,0.45,PT,1595967283.0
266,tabou,4.42,-7.35,297.12,84.0,85.0,4.48,CI,1595967283.0
267,hovd,48.01,91.64,287.12,71.0,0.0,0.43,MN,1595967283.0
268,vardo,70.37,31.11,284.15,100.0,90.0,6.7,NO,1595967284.0
269,northam,51.03,-4.22,288.15,77.0,19.0,2.68,GB,1595967285.0
270,kangaatsiaq,68.31,-53.46,279.94,90.0,14.0,2.28,GL,1595967307.0
271,olafsvik,64.89,-23.71,283.4,78.0,50.0,2.23,IS,1595967307.0
272,charlottesville,38.03,-78.48,308.71,44.0,20.0,3.03,US,1595967283.0
273,airai,-8.93,125.41,283.87,93.0,6.0,1.3,TL,1595967308.0
274,melbu,68.5,14.83,291.15,68.0,94.0,9.3,NO,1595967329.0
275,mount darwin,-16.77,31.58,285.44,79.0,31.0,2.77,ZW,1595967330.0
276,vitry-le-francois,48.73,4.58,294.15,43.0,100.0,3.1,FR,1595967330.0
277,burnie,-41.07,145.92,280.37,80.0,100.0,1.34,AU,1595967330.0
278,lavrentiya,65.58,-171.0,280.96,75.0,91.0,2.8,RU,1595967331.0
279,george town,5.41,100.34,300.15,94.0,40.0,1.0,MY,1595967053.0
280,san fernando,15.03,120.69,300.15,88.0,75.0,3.1,PH,1595967331.0
281,kupino,54.37,77.3,287.11,80.0,0.0,2.68,RU,1595967332.0
282,panzhihua,26.59,101.71,294.75,67.0,93.0,0.26,CN,1595967332.0
283,marsaxlokk,35.84,14.54,300.15,57.0,0.0,2.1,MT,1595967332.0
284,canoinhas,-26.18,-50.39,292.29,75.0,63.0,1.47,BR,1595967333.0
285,lom sak,16.78,101.24,297.55,89.0,100.0,0.89,TH,1595967333.0
286,la paz,-16.5,-68.15,290.15,6.0,20.0,3.1,BO,1595967334.0
287,santo tomas,14.11,121.14,300.15,88.0,100.0,2.1,PH,1595967334.0
288,lagoa,39.05,-27.98,296.57,89.0,0.0,6.48,PT,1595967335.0
289,waverley,-25.7,28.26,284.82,57.0,0.0,0.5,ZA,1595967335.0
290,makakilo city,21.35,-158.09,300.15,61.0,75.0,5.1,US,1595967036.0
291,ilulissat,69.22,-51.1,281.15,70.0,75.0,4.1,GL,1595967336.0
292,yerbogachen,61.28,108.01,284.42,95.0,100.0,2.69,RU,1595967336.0
293,sterling,39.01,-77.43,306.15,49.0,75.0,3.1,US,1595967336.0
294,constitucion,-35.33,-72.42,285.55,59.0,0.0,4.32,CL,1595967089.0
295,palu,-0.89,119.87,296.7,81.0,95.0,1.35,ID,1595967337.0
296,sao miguel do araguaia,-13.28,-50.16,305.6,26.0,6.0,3.38,BR,1595967337.0
297,souillac,-20.52,57.52,294.15,83.0,40.0,3.1,MU,1595967338.0
298,dauphin,51.15,-100.05,298.15,53.0,1.0,3.1,CA,1595967338.0
299,praia,14.92,-23.51,301.15,74.0,40.0,4.1,CV,1595967164.0
300,north bend,43.41,-124.22,298.15,77.0,1.0,4.1,US,1595967339.0
301,bandarbeyla,9.49,50.81,299.23,80.0,0.0,10.84,SO,1595967339.0
302,taltal,-25.4,-70.48,292.04,49.0,22.0,1.9,CL,1595967340.0
303,cuajinicuilapa,16.47,-98.42,306.35,54.0,74.0,3.49,MX,1595967340.0
304,nouadhibou,20.93,-17.03,296.15,83.0,20.0,9.3,MR,1595967340.0
305,nantucket,41.28,-70.1,300.15,78.0,1.0,7.2,US,1595967096.0
306,zyryanka,65.75,150.85,283.43,76.0,100.0,7.08,RU,1595967127.0
307,calawag,10.67,119.57,299.22,85.0,100.0,2.36,PH,1595967341.0
308,bethel,41.37,-73.41,304.82,55.0,75.0,4.1,US,1595967320.0
309,tura,25.52,90.22,296.8,95.0,100.0,2.08,IN,1595967342.0
310,vila velha,-20.33,-40.29,298.71,78.0,20.0,6.2,BR,1595967148.0
311,otradnoye,59.78,30.82,290.37,88.0,20.0,4.0,RU,1595967093.0
312,narovchat,53.88,43.69,290.51,68.0,0.0,0.62,RU,1595967343.0
313,soyo,-6.13,12.37,295.9,83.0,2.0,4.94,AO,1595967343.0
314,mount isa,-20.73,139.5,285.15,40.0,0.0,5.1,AU,1595967317.0
315,krosno,49.69,21.77,297.15,69.0,0.0,3.6,PL,1595967344.0
316,yaan,7.38,8.57,296.27,94.0,100.0,2.21,NG,1595967344.0
317,calama,-22.47,-68.93,295.15,2.0,0.0,6.7,CL,1595967345.0
318,coos bay,43.37,-124.22,298.15,77.0,1.0,4.1,US,1595967345.0
319,idlib,35.93,36.63,300.15,83.0,20.0,7.2,SY,1595967345.0
320,chemal,51.41,86.0,287.42,69.0,97.0,2.06,RU,1595967346.0
321,haines junction,60.75,-137.51,282.6,83.0,100.0,0.58,CA,1595967346.0
322,peniche,39.36,-9.38,293.71,87.0,9.0,4.02,PT,1595967347.0
323,gberia fotombu,9.88,-11.17,294.65,97.0,93.0,2.63,SL,1595967347.0
324,komsomolskiy,40.43,71.72,300.15,42.0,71.0,2.1,UZ,1595967348.0
325,manta,-0.95,-80.73,298.15,78.0,90.0,2.1,EC,1595967348.0
326,saryg-sep,51.5,95.6,285.63,92.0,100.0,0.24,RU,1595967348.0
327,tiksi,71.69,128.87,277.95,83.0,98.0,3.52,RU,1595967349.0
328,chebsara,59.2,38.84,293.15,82.0,40.0,2.0,RU,1595967349.0
329,howard springs,-12.5,131.05,292.15,25.0,32.0,3.6,AU,1595967349.0
330,miramar,25.99,-80.23,306.15,63.0,75.0,5.1,US,1595967350.0
331,kjollefjord,70.95,27.35,289.15,72.0,58.0,0.5,NO,1595967350.0
332,beisfjord,68.38,17.6,292.15,59.0,75.0,4.1,NO,1595967350.0
333,kuah,6.33,99.84,298.15,100.0,40.0,2.6,MY,1595967351.0
334,tateyama,34.98,139.87,296.48,100.0,100.0,0.89,JP,1595967351.0
335,puri,19.8,85.85,302.15,83.0,75.0,1.5,IN,1595967351.0
336,vestmannaeyjar,63.44,-20.27,284.11,87.0,99.0,4.25,IS,1595967352.0
337,eaton socon,52.22,-0.29,288.71,64.0,46.0,3.41,GB,1595967352.0
338,kearney,40.7,-99.08,302.15,58.0,20.0,4.6,US,1595967119.0
339,sechura,-5.56,-80.82,296.07,53.0,14.0,6.33,PE,1595967353.0
340,masty,53.41,24.54,292.94,90.0,100.0,3.48,BY,1595967353.0
341,ardmore,34.17,-97.14,298.71,83.0,75.0,1.5,US,1595967055.0
342,ondjiva,-17.07,15.73,288.76,32.0,0.0,2.11,AO,1595967065.0
343,buraydah,26.33,43.98,312.15,20.0,40.0,3.1,SA,1595967354.0
344,maceio,-9.67,-35.74,295.15,88.0,75.0,5.7,BR,1595967154.0
345,tazovskiy,67.47,78.7,283.11,69.0,100.0,3.18,RU,1595967355.0
346,deputatskiy,69.3,139.9,278.21,76.0,75.0,3.51,RU,1595967127.0
347,aquiraz,-3.9,-38.39,301.15,65.0,20.0,7.7,BR,1595967356.0
348,plettenberg bay,-34.05,23.37,287.97,81.0,79.0,2.82,ZA,1595967356.0
349,haapiti,-17.57,-149.87,301.15,65.0,40.0,8.2,PF,1595967356.0
350,scottsbluff,41.87,-103.67,306.15,26.0,1.0,4.6,US,1595967357.0
351,alice springs,-23.7,133.88,278.15,65.0,0.0,4.1,AU,1595967268.0
352,lebowakgomo,-24.2,29.5,283.15,53.0,0.0,3.1,ZA,1595967357.0
353,bhaktapur,27.68,85.42,294.15,100.0,40.0,1.5,NP,1595967358.0
354,poronaysk,49.22,143.12,285.9,95.0,81.0,1.39,RU,1595967358.0
355,shetpe,44.17,52.12,295.33,35.0,0.0,3.77,KZ,1595967358.0
356,hanstholm,57.12,8.62,287.04,85.0,96.0,0.45,DK,1595967359.0
357,san esteban,15.2,-85.75,303.06,53.0,9.0,3.15,HN,1595967359.0
358,safaga,26.73,33.94,305.15,52.0,0.0,4.6,EG,1595967360.0
359,neira,5.17,-75.52,294.15,68.0,75.0,4.6,CO,1595967360.0
360,chaman,30.92,66.45,297.64,17.0,0.0,0.94,PK,1595967360.0
361,hasaki,35.73,140.83,294.26,94.0,75.0,4.1,JP,1595967361.0
362,wasilla,61.58,-149.44,292.04,68.0,75.0,1.67,US,1595967064.0
363,obidos,-1.92,-55.52,306.8,34.0,0.0,2.55,BR,1595967361.0
364,meadow lake,34.8,-106.54,302.04,54.0,20.0,2.1,US,1595967362.0
365,port lincoln,-34.73,135.87,284.22,87.0,6.0,4.51,AU,1595967362.0
366,mahebourg,-20.41,57.7,294.15,83.0,40.0,3.1,MU,1595967362.0
367,saurimo,-9.66,20.39,291.53,32.0,0.0,2.35,AO,1595967363.0
368,morgan city,29.7,-91.21,304.26,74.0,75.0,6.2,US,1595967363.0
369,kungurtug,50.6,97.52,285.39,88.0,100.0,1.61,RU,1595967364.0
370,isangel,-19.55,169.27,296.44,75.0,85.0,9.39,VU,1595967364.0
371,thinadhoo,0.53,72.93,301.45,76.0,90.0,5.82,MV,1595967364.0
372,crestview,30.76,-86.57,299.15,94.0,75.0,1.5,US,1595967365.0
373,mayor pablo lagerenza,-19.93,-60.77,291.71,50.0,49.0,6.31,PY,1595967365.0
374,asau,46.43,26.4,292.59,90.0,0.0,1.78,RO,1595967365.0
375,orange walk,17.83,-88.83,305.37,70.0,40.0,4.6,BZ,1595967366.0
376,nioro,13.35,-15.75,298.44,90.0,100.0,2.6,GM,1595967366.0
377,guna,24.65,77.32,302.07,69.0,100.0,4.13,IN,1595967366.0
378,ust-tarka,55.57,75.7,285.03,94.0,59.0,3.11,RU,1595967367.0
379,matara,5.95,80.54,299.21,83.0,100.0,5.78,LK,1595967367.0
380,margate,51.38,1.39,291.48,51.0,62.0,0.89,GB,1595967367.0
381,uige,-7.61,15.06,292.33,53.0,5.0,1.22,AO,1595967367.0
382,santa cruz,-17.8,-63.17,299.15,31.0,75.0,7.7,BO,1595967081.0
383,broome,42.25,-75.83,301.48,42.0,75.0,4.1,US,1595967368.0
384,saint george,37.1,-113.58,312.59,14.0,1.0,2.6,US,1595967283.0
385,vila franca do campo,37.72,-25.43,296.15,94.0,40.0,3.6,PT,1595967369.0
386,toledo,39.83,-4.0,307.59,32.0,0.0,2.57,ES,1595967369.0
387,kavieng,-2.57,150.8,301.26,71.0,77.0,4.32,PG,1595967370.0
388,ardakan,32.31,54.02,304.15,15.0,0.0,2.1,IR,1595967370.0
389,verkhoyansk,67.54,133.38,282.41,64.0,100.0,2.52,RU,1595967371.0
390,mildura,-34.2,142.15,276.15,100.0,0.0,2.28,AU,1595967371.0
391,roald,62.58,6.13,291.48,72.0,51.0,2.6,NO,1595967371.0
392,high rock,26.62,-78.28,304.15,70.0,75.0,3.1,BS,1595967371.0
393,ajdabiya,30.76,20.23,297.49,83.0,0.0,4.75,LY,1595967372.0
394,takoradi,4.88,-1.76,296.73,87.0,9.0,3.92,GH,1595967372.0
395,lewiston,44.1,-70.21,304.82,55.0,1.0,3.6,US,1595967373.0
396,pella,59.78,30.82,290.37,88.0,20.0,4.0,RU,1595967093.0
397,zhangye,38.93,100.45,297.97,27.0,98.0,5.18,CN,1595967373.0
398,luderitz,-26.65,15.16,287.15,82.0,0.0,5.7,NA,1595967374.0
399,opuwo,-18.06,13.84,288.65,33.0,0.0,3.47,NA,1595967374.0
400,raudeberg,61.99,5.14,291.15,87.0,40.0,3.1,NO,1595967374.0
401,knyaze-volkonskoye,48.46,135.46,295.15,88.0,0.0,2.0,RU,1595967374.0
402,meulaboh,4.14,96.13,296.74,86.0,100.0,1.76,ID,1595967375.0
403,dunedin,-45.87,170.5,283.15,65.0,94.0,2.24,NZ,1595967375.0
404,katangli,51.71,143.23,286.15,95.0,5.0,4.44,RU,1595967376.0
405,pitimbu,-7.47,-34.81,298.15,73.0,20.0,4.6,BR,1595967376.0
406,sulangan,11.14,123.72,300.82,77.0,100.0,3.65,PH,1595967377.0
407,naze,28.37,129.48,300.15,94.0,11.0,1.5,JP,1595967377.0
408,gayny,60.31,54.32,287.08,93.0,66.0,1.24,RU,1595967377.0
409,yuxia,34.06,108.63,299.26,94.0,84.0,2.0,CN,1595967378.0
410,dongsheng,39.82,109.98,294.49,46.0,0.0,3.27,CN,1595967378.0
411,amapa,1.0,-52.0,303.52,48.0,38.0,2.1,BR,1595967378.0
412,lasa,46.62,10.7,290.93,87.0,75.0,1.5,IT,1595967379.0
413,khash,28.22,61.22,298.64,17.0,0.0,4.2,IR,1595967379.0
414,komatipoort,-25.43,31.95,288.15,72.0,0.0,2.1,ZA,1595967379.0
415,hobyo,5.35,48.53,298.72,82.0,7.0,9.98,SO,1595967380.0
416,scarborough,54.28,-0.4,287.59,68.0,44.0,1.34,GB,1595967330.0
417,coruripe,-10.13,-36.18,297.02,84.0,53.0,5.9,BR,1595967381.0
418,college,64.86,-147.8,287.15,76.0,90.0,2.92,US,1595967381.0
419,emerald,-23.53,148.17,280.15,60.0,0.0,3.1,AU,1595967381.0
420,la ronge,55.1,-105.28,301.15,51.0,20.0,5.1,CA,1595967382.0
421,beringovskiy,63.05,179.32,287.33,80.0,10.0,2.6,RU,1595967382.0
422,sabang,5.89,95.32,300.36,77.0,100.0,12.96,ID,1595967382.0
423,puerto escondido,15.85,-97.07,303.15,70.0,40.0,2.9,MX,1595967383.0
424,seydi,39.48,62.91,303.33,23.0,0.0,6.43,TM,1595967383.0
425,riyadh,24.69,46.72,311.15,22.0,57.0,2.1,SA,1595967233.0
426,kysyl-syr,63.9,122.76,282.51,71.0,100.0,3.23,RU,1595967384.0
427,cordoba,-31.41,-64.18,289.26,22.0,0.0,3.1,AR,1595967384.0
428,erenhot,43.65,111.98,296.04,36.0,81.0,2.93,CN,1595967385.0
429,vredendal,-31.67,18.5,284.75,86.0,0.0,3.95,ZA,1595967385.0
430,gambela,8.25,34.58,294.86,87.0,100.0,0.8,ET,1595967385.0
431,ouegoa,-20.35,164.43,295.74,77.0,64.0,9.58,NC,1595967385.0
432,altay,47.87,88.12,287.53,49.0,0.0,1.82,CN,1595967386.0
433,sapa,5.15,120.32,300.34,77.0,100.0,2.23,PH,1595967386.0
434,puerto madero,14.72,-92.42,305.15,66.0,40.0,5.1,MX,1595967386.0
435,tuatapere,-46.13,167.68,279.26,86.0,92.0,1.34,NZ,1595967387.0
436,san patricio,19.22,-104.7,305.15,75.0,40.0,5.1,MX,1595967387.0
437,teya,60.38,92.63,284.13,77.0,43.0,0.59,RU,1595967387.0
438,acapulco,16.86,-99.89,304.15,70.0,75.0,3.6,MX,1595967153.0
439,santiago,-33.46,-70.65,290.15,36.0,0.0,1.5,CL,1595966738.0
440,yichang,30.71,111.28,297.59,82.0,52.0,0.73,CN,1595967388.0
441,chiusi,43.02,11.95,302.59,54.0,0.0,1.51,IT,1595967389.0
442,angoche,-16.23,39.91,294.27,77.0,14.0,4.7,MZ,1595967389.0
443,montalban,44.02,1.35,298.15,65.0,75.0,5.7,FR,1595967389.0
444,lahij,13.17,44.58,302.17,63.0,0.0,0.77,YE,1595967389.0
445,ciego de avila,21.84,-78.76,305.41,58.0,47.0,6.0,CU,1595967390.0
446,tiznit,29.58,-9.5,299.54,49.0,0.0,1.22,MA,1595967390.0
447,evensk,61.95,159.23,284.73,94.0,100.0,3.03,RU,1595967390.0
448,boyolangu,-8.12,111.89,295.1,87.0,72.0,2.59,ID,1595967391.0
449,kijang,35.24,129.21,297.15,88.0,90.0,0.5,KR,1595967391.0
450,quesnel,53.0,-122.5,296.15,49.0,40.0,2.6,CA,1595967340.0
451,tigzirt,36.89,4.12,301.91,47.0,0.0,5.82,DZ,1595967392.0
452,asyut,27.18,31.18,302.15,39.0,0.0,4.6,EG,1595967359.0
453,calamba,14.21,121.17,300.15,88.0,100.0,2.1,PH,1595967393.0
454,schruns,47.07,9.95,293.71,94.0,74.0,1.16,AT,1595967393.0
455,mitsamiouli,-11.38,43.28,297.48,81.0,2.0,6.93,KM,1595967394.0
456,markova,48.68,24.41,290.77,87.0,0.0,2.13,UA,1595967394.0
457,sao filipe,14.9,-24.5,298.61,81.0,92.0,2.55,CV,1595967394.0
458,balakhninskiy,58.01,114.28,288.5,88.0,89.0,0.45,RU,1595967395.0
459,saint-francois,46.42,3.91,296.15,49.0,13.0,2.6,FR,1595967395.0
460,beloha,-25.17,45.05,290.64,83.0,27.0,5.58,MG,1595967396.0
461,saint-jean-de-maurienne,45.17,6.58,290.93,65.0,83.0,0.89,FR,1595967396.0
462,finschhafen,-6.6,147.87,298.99,76.0,3.0,2.18,PG,1595967396.0
463,cam ranh,11.92,109.16,301.15,83.0,20.0,1.5,VN,1595967397.0
464,suntar,62.14,117.63,284.14,93.0,100.0,3.25,RU,1595967397.0
465,shaoxing,30.01,120.57,299.15,94.0,99.0,1.0,CN,1595967397.0
466,maine-soroa,13.21,12.02,304.6,48.0,17.0,5.42,NE,1595967398.0
467,punta cardon,11.66,-70.22,303.83,63.0,0.0,8.96,VE,1595967398.0
468,half moon bay,37.46,-122.43,295.93,82.0,20.0,3.6,US,1595967182.0
469,jawhar,2.78,45.5,297.67,82.0,59.0,5.93,SO,1595967399.0
470,nadym,65.53,72.52,280.45,75.0,31.0,4.91,RU,1595967399.0
471,lugovoy,42.95,72.76,295.69,37.0,23.0,3.12,KZ,1595967399.0
472,sydney,-33.87,151.21,285.93,81.0,100.0,2.1,AU,1595967008.0
473,bozhou,33.88,115.77,296.43,91.0,100.0,1.65,CN,1595967400.0
474,flinders,-34.58,150.86,284.26,83.0,87.0,0.45,AU,1595967401.0
475,santa fe,-31.63,-60.7,287.59,21.0,0.0,1.79,AR,1595967300.0
476,conceicao do araguaia,-8.26,-49.26,306.15,27.0,2.0,3.6,BR,1595967401.0
477,mobaye,4.32,21.18,294.7,93.0,100.0,0.03,CF,1595967402.0
478,serrinha,-11.66,-39.01,293.92,87.0,78.0,4.72,BR,1595967256.0
479,presidencia roque saenz pena,-26.79,-60.44,288.13,34.0,0.0,3.61,AR,1595967402.0
480,sabha,27.04,14.43,303.27,18.0,0.0,4.05,LY,1595967403.0
481,muros,42.78,-9.06,292.04,76.0,2.0,4.92,ES,1595967403.0
482,kharan,28.58,65.42,304.87,29.0,45.0,3.77,PK,1595967403.0
483,peranamallur,12.57,79.43,301.61,67.0,100.0,2.03,IN,1595967404.0
484,houma,29.6,-90.72,305.37,74.0,40.0,4.1,US,1595967237.0
485,pangnirtung,66.15,-65.71,282.15,93.0,90.0,4.1,CA,1595967404.0
486,road town,18.42,-64.62,303.15,74.0,75.0,5.7,VG,1595967405.0
487,anicuns,-16.46,-49.96,302.72,26.0,20.0,1.25,BR,1595967405.0
488,stornoway,58.21,-6.39,285.15,76.0,93.0,8.7,GB,1595967405.0
489,sahaspur,29.13,78.62,298.97,91.0,100.0,6.15,IN,1595967406.0
490,hargeysa,9.56,44.06,293.68,70.0,1.0,12.72,SO,1595967406.0
491,bayir,37.27,28.22,301.15,48.0,0.0,2.1,TR,1595967406.0
492,tanout,14.97,8.89,305.21,41.0,2.0,5.63,NE,1595967407.0
493,san ramon,37.78,-121.98,303.15,34.0,1.0,4.6,US,1595967407.0
494,dingle,11.0,122.67,297.52,90.0,100.0,1.16,PH,1595967407.0
495,carangola,-20.73,-42.03,295.63,62.0,0.0,1.7,BR,1595967408.0
496,carauari,-4.88,-66.9,305.18,50.0,27.0,1.48,BR,1595967408.0
497,uttaradit,17.67,100.5,298.71,76.0,99.0,0.57,TH,1595967408.0
498,vao,-22.67,167.48,295.61,78.0,63.0,11.61,NC,1595967409.0
499,bela,25.93,81.98,299.76,91.0,100.0,0.94,IN,1595967409.0
500,hamilton,39.18,-84.53,304.26,45.0,40.0,4.1,US,1595967040.0
501,nhulunbuy,-12.23,136.77,294.15,64.0,94.0,3.6,AU,1595967410.0
502,iskateley,67.68,53.15,282.12,88.0,0.0,4.63,RU,1595967410.0
503,berlevag,70.86,29.09,288.15,100.0,6.0,7.7,NO,1595967411.0
504,gaspe,48.83,-64.48,290.15,93.0,90.0,4.1,CA,1595967182.0
505,khandyga,62.67,135.6,284.98,84.0,16.0,2.29,RU,1595967411.0
506,gupitan,7.78,125.64,296.7,88.0,100.0,0.7,PH,1595967411.0
507,uruzgan,32.83,66.0,293.26,22.0,0.0,2.27,AF,1595967412.0
508,stromness,58.97,-3.3,284.26,93.0,100.0,13.4,GB,1595967412.0
509,santa cruz cabralia,-16.28,-39.02,297.15,64.0,40.0,5.1,BR,1595967413.0
510,camacha,33.08,-16.33,295.15,83.0,75.0,5.7,PT,1595967413.0
511,qasigiannguit,68.82,-51.19,281.15,70.0,75.0,4.1,GL,1595967413.0
512,ismailia,30.6,32.27,298.52,73.0,0.0,2.47,EG,1595967414.0
513,south lake tahoe,38.93,-119.98,298.15,36.0,1.0,2.1,US,1595967142.0
514,ixtapa,20.7,-105.2,304.82,70.0,75.0,2.6,MX,1595967414.0
515,el dorado,33.21,-92.67,305.15,59.0,40.0,4.1,US,1595967415.0
516,masallatah,32.62,14.0,296.59,76.0,0.0,3.3,LY,1595967415.0
517,grindavik,63.84,-22.43,283.15,100.0,90.0,4.1,IS,1595967415.0
518,beira,-19.84,34.84,290.15,93.0,20.0,1.5,MZ,1595967416.0
519,opunake,-39.46,173.86,281.48,94.0,99.0,0.89,NZ,1595967416.0
520,nizwa,22.93,57.53,304.6,50.0,1.0,2.65,OM,1595967416.0
521,quatre cocos,-20.21,57.76,294.15,83.0,40.0,3.1,MU,1595967417.0
522,salsk,46.47,41.54,293.73,83.0,100.0,5.71,RU,1595967417.0
523,westport,41.14,-73.36,307.59,52.0,75.0,5.7,US,1595967342.0
524,bereda,43.27,-7.54,289.82,97.0,94.0,5.36,ES,1595967417.0
525,kanniyakumari,8.08,77.57,300.17,79.0,100.0,9.24,IN,1595967418.0
526,clyde river,70.47,-68.59,282.15,81.0,20.0,4.6,CA,1595967418.0
527,barranca,-10.75,-77.77,291.42,69.0,5.0,4.3,PE,1595967418.0
528,nyurba,63.28,118.33,284.04,76.0,100.0,3.08,RU,1595967419.0
529,sal rei,16.18,-22.92,301.15,69.0,40.0,5.7,CV,1595967419.0
530,balkhash,46.84,74.98,294.66,50.0,0.0,1.0,KZ,1595967419.0
531,hofn,64.25,-15.21,283.97,80.0,100.0,3.54,IS,1595967420.0
532,mecca,21.43,39.83,301.4,59.0,0.0,3.16,SA,1595967331.0
533,fort-shevchenko,44.51,50.26,298.22,48.0,48.0,7.85,KZ,1595967421.0
534,broken hill,-31.95,141.43,279.15,75.0,0.0,2.1,AU,1595967421.0
535,xiazhen,34.8,117.11,295.21,95.0,91.0,2.67,CN,1595967421.0
536,tigil,57.8,158.67,284.02,85.0,99.0,2.97,RU,1595967422.0
537,tucurui,-3.77,-49.67,304.26,42.0,2.0,2.57,BR,1595967422.0
538,stillwater,36.12,-97.06,302.15,70.0,75.0,3.1,US,1595967422.0
539,lang suan,9.95,99.08,298.4,85.0,100.0,1.79,TH,1595967423.0
540,san joaquin,10.26,-67.79,300.32,79.0,87.0,2.64,VE,1595967423.0
541,mount pleasant,32.79,-79.86,307.59,75.0,1.0,6.2,US,1595967411.0
542,rzhanitsa,53.43,33.92,292.13,87.0,100.0,2.69,RU,1595967424.0
543,yumen,40.28,97.2,297.95,28.0,100.0,1.5,CN,1595967424.0
544,ciudad valles,21.98,-99.02,303.69,66.0,75.0,3.45,MX,1595967424.0
545,neuquen,-38.95,-68.06,285.15,34.0,0.0,5.1,AR,1595967425.0
546,abu samrah,35.3,37.18,304.17,35.0,0.0,4.08,SY,1595967425.0
547,swellendam,-34.02,20.44,284.15,81.0,71.0,1.5,ZA,1595967425.0
548,iwaki,37.05,140.88,295.37,97.0,100.0,2.95,JP,1595967426.0
549,genhe,50.78,121.52,289.36,92.0,23.0,1.45,CN,1595967426.0
550,khani,41.96,42.96,297.15,94.0,90.0,1.5,GE,1595967426.0
551,biak,-0.91,122.88,297.38,81.0,96.0,3.42,ID,1595967427.0
552,sorland,67.67,12.69,291.15,68.0,11.0,4.6,NO,1595967427.0
553,ternate,0.8,127.4,298.8,82.0,100.0,2.01,ID,1595967428.0
554,tomatlan,19.93,-105.25,305.7,53.0,100.0,4.36,MX,1595967428.0
555,lozuvatka,48.06,33.29,298.15,41.0,20.0,3.0,UA,1595967428.0
556,maymyo,22.03,96.47,292.27,100.0,100.0,0.1,MM,1595967429.0
557,kargasok,59.06,80.86,285.31,66.0,73.0,2.12,RU,1595967429.0
558,faya,18.39,42.45,295.15,60.0,40.0,3.08,SA,1595967430.0
559,sawtell,-30.38,153.1,285.93,81.0,18.0,4.1,AU,1595967430.0
560,cabo san lucas,22.89,-109.91,305.15,65.0,40.0,7.7,MX,1595967352.0
561,balad,34.02,44.15,312.33,10.0,0.0,4.22,IQ,1595967431.0
562,pahrump,36.21,-115.98,312.59,8.0,0.0,0.45,US,1595967192.0
